station_id,station_name,month_beginning,avg_weekday_rides,avg_saturday_rides,avg_sunday-holiday_rides,month_total,lat,long
40900,Howard,2001-01-01,6233.9,3814.5,2408.6,164447,42.019063,-87.672892
41190,Jarvis,2001-01-01,1489.1,1054.0,718.0,40567,42.015876,-87.669092
40100,Morse,2001-01-01,4412.5,3064.5,2087.8,119772,42.008362,-87.665909
41300,Loyola,2001-01-01,4664.5,3156.0,1952.8,125008,42.001073,-87.661061
40760,Granville,2001-01-01,3109.8,2126.0,1453.8,84189,41.993664,-87.659202
40880,Thorndale,2001-01-01,2977.7,1840.3,1262.6,79184,41.990259,-87.659076
41380,Bryn Mawr,2001-01-01,4425.4,2708.3,1881.2,117597,41.983504,-87.65884
40340,Berwyn,2001-01-01,3329.6,2050.8,1445.6,88683,41.977984,-87.658668
41200,Argyle,2001-01-01,2745.5,1874.5,1268.2,74240,41.973453,-87.65853
40770,Lawrence,2001-01-01,2689.6,1869.0,1227.8,72786,41.969139,-87.658493
40540,Wilson,2001-01-01,4968.1,3069.0,1903.8,131094,41.964273,-87.657588
40080,Sheridan,2001-01-01,4455.9,2625.8,1685.2,116958,41.953775,-87.654929
41420,Addison-North Main,2001-01-01,4805.5,2893.5,1900.2,126797,41.947428,-87.653626
41320,Belmont-North Main,2001-01-01,9075.5,6860.5,4241.4,248310,41.939751,-87.65338
41220,Fullerton,2001-01-01,10121.0,5239.8,3116.2,259203,41.925051,-87.652866
40650,North/Clybourn,2001-01-01,3525.6,2674.5,1772.8,97126,41.910655,-87.649177
40630,Clark/Division,2001-01-01,6501.5,4726.5,3209.0,177985,41.90392,-87.631412
41450,Chicago/State,2001-01-01,12311.0,9184.3,5658.6,335872,41.896671,-87.628176
40330,Grand/State,2001-01-01,8378.5,5428.0,3504.8,223562,41.891665,-87.628021
41660,Lake/State,2001-01-01,13360.8,5721.8,3575.8,334704,41.884809,-87.627813
41090,Monroe/State,2001-01-01,7123.0,2439.3,1269.2,172809,41.880745,-87.627696
40560,Jackson/State,2001-01-01,11340.2,3649.0,1877.6,273468,41.878153,-87.627596
41490,Harrison,2001-01-01,2384.7,1208.3,715.4,60874,41.874039,-87.627479
41400,Roosevelt,2001-01-01,5510.8,3170.3,2052.0,144179,41.867405,-87.62659
41400,Roosevelt,2001-01-01,5510.8,3170.3,2052.0,144179,41.867368,-87.627402
41000,Cermak-Chinatown,2001-01-01,2396.3,2349.8,2066.6,72450,41.853206,-87.630968
40190,Sox-35th-Dan Ryan,2001-01-01,3431.9,2124.3,1491.6,91457,41.831191,-87.630636
41230,47th-Dan Ryan,2001-01-01,2297.6,1594.3,1121.2,62530,41.810318,-87.63094
41170,Garfield-Dan Ryan,2001-01-01,4510.2,3181.5,1879.4,121347,41.79542,-87.631157
40910,63rd-Dan Ryan,2001-01-01,3631.5,2414.8,1817.8,98640,41.780536,-87.630952
40990,69th,2001-01-01,6818.6,4519.8,2901.0,182594,41.768367,-87.625724
40240,79th,2001-01-01,7406.7,4689.5,3187.6,197643,41.750419,-87.625112
41430,87th,2001-01-01,5341.1,3239.3,2031.6,140619,41.735372,-87.624717
40450,95th/Dan Ryan,2001-01-01,14162.6,7472.8,4914.4,366040,41.722377,-87.624342
41050,Linden,2001-01-01,1075.2,413.3,219.8,26407,42.073153,-87.69073
41250,Central-Evanston,2001-01-01,942.6,449.8,242.4,23749,42.063987,-87.685617
40400,Noyes,2001-01-01,552.4,404.3,184.0,14689,42.058282,-87.683337
40520,Foster,2001-01-01,687.9,424.0,221.4,17937,42.05416,-87.68356
40050,Davis,2001-01-01,3564.8,2541.5,1313.8,95161,42.04771,-87.683543
40690,Dempster,2001-01-01,649.0,415.8,260.6,17244,42.041655,-87.681602
40270,Main,2001-01-01,1213.0,664.0,355.4,31118,42.033456,-87.679538
40840,South Boulevard,2001-01-01,851.1,411.3,225.2,21495,42.027612,-87.678329
40140,Skokie,2001-01-01,2521.5,0.0,0.0,55472,42.038951,-87.751919
40890,O'Hare Airport,2001-01-01,7907.7,5913.3,6097.8,228112,41.97766526,-87.90422307
40820,Rosemont,2001-01-01,5162.3,1866.0,1108.8,126579,41.983507,-87.859388
40230,Cumberland,2001-01-01,4729.2,1516.3,989.4,115054,41.984246,-87.838028
40750,Harlem-O'Hare,2001-01-01,2657.0,1015.8,603.6,65534,41.98227,-87.8089
41280,Jefferson Park,2001-01-01,6619.0,2717.5,1754.0,165259,41.970634,-87.760892
41330,Montrose-O'Hare,2001-01-01,1903.1,722.0,473.2,47122,41.961539,-87.743574
40550,Irving Park-O'Hare,2001-01-01,3724.1,1671.5,1079.4,94013,41.952925,-87.729229
41240,Addison-O'Hare,2001-01-01,2391.0,790.0,472.4,58124,41.94738,-87.71906
40060,Belmont-O'Hare,2001-01-01,4548.6,2275.5,1528.0,116812,41.938132,-87.712359
41020,Logan Square,2001-01-01,4631.6,2231.0,1396.8,117803,41.929728,-87.708541
40570,California/Milwaukee,2001-01-01,2838.6,1406.8,819.8,72176,41.921939,-87.69689
40670,Western/Milwaukee,2001-01-01,2875.5,1293.0,792.6,72395,41.916157,-87.687364
40590,Damen/Milwaukee,2001-01-01,4115.9,1846.0,1134.0,103604,41.909744,-87.677437
40320,Division/Milwaukee,2001-01-01,4362.0,1952.3,1225.4,109899,41.903355,-87.666496
41410,Chicago/Milwaukee,2001-01-01,2109.8,662.0,376.2,50945,41.896075,-87.655214
40490,Grand/Milwaukee,2001-01-01,1138.0,499.5,294.4,28505,41.891189,-87.647578
40370,Washington/Dearborn,2001-01-01,8579.6,2215.5,1201.2,203619,41.883164,-87.62944
40790,Monroe/Dearborn,2001-01-01,5668.0,1041.8,540.8,131567,41.880703,-87.629378
40070,Jackson/Dearborn,2001-01-01,7105.5,1856.0,926.6,168377,41.878183,-87.629296
41340,LaSalle,2001-01-01,2152.5,342.3,183.8,49643,41.875568,-87.631722
40430,Clinton-Forest Park,2001-01-01,2360.9,790.5,603.2,58118,41.875539,-87.640984
40350,UIC-Halsted,2001-01-01,4018.3,886.5,481.8,94358,41.875474,-87.649707
40470,Racine,2001-01-01,2136.3,805.5,372.8,52085,41.87592,-87.659458
40810,Medical Center,2001-01-01,1919.1,1016.8,633.8,49457,41.875706,-87.673932
40220,Western-Forest Park,2001-01-01,937.5,664.3,387.6,25221,41.875478,-87.688436
40250,Kedzie-Homan-Forest Park,2001-01-01,1257.9,841.8,537.6,33728,41.874341,-87.70604
40920,Pulaski-Forest Park,2001-01-01,1187.7,870.3,574.8,32484,41.873797,-87.725663
40970,Cicero-Forest Park,2001-01-01,1004.0,742.0,459.2,27352,41.871574,-87.745154
40010,Austin-Forest Park,2001-01-01,1480.8,661.5,394.0,37193,41.870851,-87.776812
40180,Oak Park-Forest Park,2001-01-01,1384.1,397.5,210.2,33092,41.872108,-87.791602
40980,Harlem-Forest Park,2001-01-01,785.7,377.0,233.4,19961,41.87349,-87.806961
40390,Forest Park,2001-01-01,3516.4,1220.5,736.8,85926,41.874257,-87.817318
41030,Polk,2001-01-01,2379.7,7.3,0.0,52383,41.871551,-87.66953
40830,18th,2001-01-01,967.3,5.0,0.0,21301,41.857908,-87.669147
40210,Damen-Cermak,2001-01-01,657.9,0.8,0.0,14477,41.854517,-87.675975
40740,Western-Cermak,2001-01-01,523.9,1.3,0.0,11530,41.854225,-87.685129
40440,California-Cermak,2001-01-01,779.7,1.0,0.0,17157,41.854109,-87.694774
41040,Kedzie-Cermak,2001-01-01,444.9,0.3,0.0,9789,41.853964,-87.705408
40780,Central Park,2001-01-01,453.0,2.3,0.0,9974,41.853839,-87.714842
40150,Pulaski-Cermak,2001-01-01,459.3,2.3,0.0,10114,41.853732,-87.724311
40600,Kostner,2001-01-01,303.2,0.5,0.0,6673,41.853751,-87.733258
40420,Cicero-Cermak,2001-01-01,845.6,4.5,0.0,18621,41.85182,-87.745336
40580,54th/Cermak,2001-01-01,1547.3,4.0,0.0,34057,41.85177331,-87.75669201
40020,Harlem-Lake,2001-01-01,3269.7,1637.0,825.6,82609,41.886848,-87.803176
41350,Oak Park-Lake,2001-01-01,1362.5,480.8,285.8,33326,41.886988,-87.793783
40610,Ridgeland,2001-01-01,1247.2,369.3,184.2,29837,41.887159,-87.783661
41260,Austin-Lake,2001-01-01,1972.5,927.8,513.2,49673,41.887293,-87.774135
40280,Central-Lake,2001-01-01,2224.3,1295.5,786.0,58047,41.887389,-87.76565
40700,Laramie,2001-01-01,1296.8,659.5,373.8,33036,41.887163,-87.754986
40480,Cicero-Lake,2001-01-01,1291.3,712.8,463.2,33576,41.886519,-87.744698
40030,Pulaski-Lake,2001-01-01,1509.8,884.3,561.0,39558,41.885412,-87.725404
41070,Kedzie-Lake,2001-01-01,1168.9,626.0,404.0,30240,41.884321,-87.706155
41360,California-Lake,2001-01-01,756.8,380.8,255.4,19449,41.88422,-87.696234
40170,Ashland-Lake,2001-01-01,1408.4,538.5,330.2,34790,41.885269,-87.666969
41160,Clinton-Lake,2001-01-01,1816.0,405.8,253.0,42841,41.885678,-87.641782
41120,35-Bronzeville-IIT,2001-01-01,1743.8,912.5,576.0,44893,41.831677,-87.625826
40300,Indiana,2001-01-01,568.8,317.5,224.8,14908,41.821732,-87.621371
41270,43rd,2001-01-01,764.4,430.0,267.0,19871,41.816462,-87.619021
41080,47th-South Elevated,2001-01-01,1242.1,789.3,468.4,32826,41.809209,-87.618826
40130,51st,2001-01-01,1116.7,700.0,448.4,29609,41.80209,-87.618487
40510,Garfield-South Elevated,2001-01-01,720.8,495.0,304.2,19359,41.795172,-87.618327
41140,King Drive,2001-01-01,697.8,396.0,220.8,18039,41.78013,-87.615546
40720,East 63rd-Cottage Grove,2001-01-01,1400.0,716.8,460.4,35969,41.780309,-87.605857
40940,Halsted/63rd,2001-01-01,707.6,461.5,271.2,18770,41.778943,-87.644244
40290,Ashland/63rd,2001-01-01,1774.4,927.3,648.6,45989,41.77886,-87.663766
41290,Kimball,2001-01-01,4022.5,2128.8,1110.6,102564,41.967901,-87.713065
41180,Kedzie-Brown,2001-01-01,1444.7,902.8,554.8,38169,41.965996,-87.708821
40870,Francisco,2001-01-01,1085.5,459.0,235.4,26893,41.966046,-87.701644
41010,Rockwell,2001-01-01,1267.0,512.8,295.8,31403,41.966115,-87.6941
41480,Western-Brown,2001-01-01,3421.9,1631.5,902.8,86321,41.966163,-87.688502
40090,Damen-Brown,2001-01-01,2083.4,1030.5,536.2,52637,41.966286,-87.678639
41500,Montrose-Brown,2001-01-01,2016.1,910.8,489.6,50446,41.961756,-87.675047
41460,Irving Park-Brown,2001-01-01,2315.0,932.5,471.8,57018,41.954521,-87.674868
41440,Addison-Brown,2001-01-01,1794.9,637.8,291.0,43494,41.947028,-87.674642
41310,Paulina,2001-01-01,2030.4,943.3,495.4,50919,41.943623,-87.670907
40360,Southport,2001-01-01,2668.3,991.0,520.0,65267,41.943744,-87.663619
41210,Wellington,2001-01-01,2539.9,759.8,378.8,60810,41.936033,-87.653266
40530,Diversey,2001-01-01,4286.0,1883.5,867.2,106162,41.932732,-87.653131
40660,Armitage,2001-01-01,3338.0,1060.5,484.8,80102,41.918217,-87.652644
40800,Sedgwick,2001-01-01,2132.2,963.3,498.8,53255,41.910409,-87.639302
40710,Chicago/Franklin,2001-01-01,4052.4,1354.0,550.8,97322,41.89681,-87.635924
40460,Merchandise Mart,2001-01-01,6107.6,1022.3,347.6,140195,41.888969,-87.633924
40930,Midway Airport,2001-01-01,7579.6,2506.0,1915.6,186353,41.78661,-87.737875
40960,Pulaski-Orange,2001-01-01,5021.7,1257.8,605.6,118537,41.799756,-87.724493
41150,Kedzie-Midway,2001-01-01,2907.8,1150.0,583.4,71488,41.804236,-87.704406
40310,Western-Orange,2001-01-01,3216.8,1051.3,552.6,77738,41.804546,-87.684019
40120,35th/Archer,2001-01-01,2034.3,640.8,343.4,49035,41.829353,-87.680622
41060,Ashland-Orange,2001-01-01,1280.0,553.5,304.0,31895,41.839234,-87.665317
41130,Halsted-Orange,2001-01-01,2385.1,679.3,357.4,56976,41.84678,-87.648088
40730,Washington/Wells,2001-01-01,7217.2,718.3,303.0,163166,41.882695,-87.63378
41010,Rockwell,2006-04-01,0.0,0.0,0.0,0,41.966115,-87.6941
40040,Quincy/Wells,2001-01-01,7928.3,895.8,431.0,180161,41.878723,-87.63374
40160,LaSalle/Van Buren,2001-01-01,3638.3,300.0,123.4,81860,41.8768,-87.631739
40850,Library,2001-01-01,2391.6,701.8,248.0,56662,41.876862,-87.628196
40680,Adams/Wabash,2001-01-01,6918.8,2206.0,978.2,165928,41.879507,-87.626037
40260,State/Lake,2001-01-01,8352.5,3808.5,2390.8,210942,41.88574,-87.627835
40380,Clark/Lake,2001-01-01,15174.9,2356.3,1363.4,350089,41.885737,-87.630886
40900,Howard,2001-02-01,6389.5,3761.0,2534.3,152971,42.019063,-87.672892
41190,Jarvis,2001-02-01,1510.5,1079.3,756.5,37553,42.015876,-87.669092
40100,Morse,2001-02-01,4478.1,2999.8,2155.8,110184,42.008362,-87.665909
41300,Loyola,2001-02-01,5010.0,3339.8,2143.0,122130,42.001073,-87.661061
40760,Granville,2001-02-01,3288.7,2210.3,1601.8,81022,41.993664,-87.659202
40880,Thorndale,2001-02-01,3099.1,1866.0,1343.8,74821,41.990259,-87.659076
41380,Bryn Mawr,2001-02-01,4547.2,2706.8,1997.8,109762,41.983504,-87.65884
40340,Berwyn,2001-02-01,3420.1,2073.8,1564.3,82954,41.977984,-87.658668
41200,Argyle,2001-02-01,2775.0,1764.3,1311.0,67801,41.973453,-87.65853
40770,Lawrence,2001-02-01,2742.4,1864.0,1386.3,67848,41.969139,-87.658493
40540,Wilson,2001-02-01,5368.7,3341.3,2085.0,129078,41.964273,-87.657588
40080,Sheridan,2001-02-01,4518.0,2572.3,1784.8,107787,41.953775,-87.654929
41420,Addison-North Main,2001-02-01,4992.7,2905.5,1965.0,119335,41.947428,-87.653626
41320,Belmont-North Main,2001-02-01,9317.7,6584.5,4737.8,231643,41.939751,-87.65338
41220,Fullerton,2001-02-01,10417.9,5102.0,3505.3,242787,41.925051,-87.652866
40650,North/Clybourn,2001-02-01,3576.6,2561.0,1915.8,89439,41.910655,-87.649177
40630,Clark/Division,2001-02-01,6703.9,4672.8,3485.8,166712,41.90392,-87.631412
41450,Chicago/State,2001-02-01,12516.1,8718.3,6122.5,309684,41.896671,-87.628176
40330,Grand/State,2001-02-01,8246.9,5431.0,3910.8,202304,41.891665,-87.628021
41660,Lake/State,2001-02-01,13598.5,5792.3,3971.0,311022,41.884809,-87.627813
41090,Monroe/State,2001-02-01,7399.0,2665.0,1488.5,164594,41.880745,-87.627696
40560,Jackson/State,2001-02-01,11756.0,3877.3,2125.8,259132,41.878153,-87.627596
41490,Harrison,2001-02-01,2645.3,1287.0,775.8,61156,41.874039,-87.627479
41400,Roosevelt,2001-02-01,5766.3,3365.8,2268.3,137861,41.867405,-87.62659
41400,Roosevelt,2001-02-01,5766.3,3365.8,2268.3,137861,41.867368,-87.627402
41000,Cermak-Chinatown,2001-02-01,2553.9,2574.0,2002.0,69382,41.853206,-87.630968
40190,Sox-35th-Dan Ryan,2001-02-01,3588.6,2165.0,1604.8,86850,41.831191,-87.630636
41230,47th-Dan Ryan,2001-02-01,2400.7,1603.3,1197.3,59216,41.810318,-87.63094
41170,Garfield-Dan Ryan,2001-02-01,4587.7,3002.8,2019.3,111842,41.79542,-87.631157
40910,63rd-Dan Ryan,2001-02-01,3586.3,2416.5,1950.5,89194,41.780536,-87.630952
40990,69th,2001-02-01,6869.5,4392.8,2994.0,166937,41.768367,-87.625724
40240,79th,2001-02-01,7489.3,4700.0,3330.3,181907,41.750419,-87.625112
41430,87th,2001-02-01,5454.7,3301.5,2206.3,131125,41.735372,-87.624717
40450,95th/Dan Ryan,2001-02-01,14445.6,7166.5,5282.8,338708,41.722377,-87.624342
41050,Linden,2001-02-01,1095.9,411.8,252.3,24573,42.073153,-87.69073
41250,Central-Evanston,2001-02-01,955.2,501.3,269.3,22185,42.063987,-87.685617
40400,Noyes,2001-02-01,593.2,431.0,215.3,14449,42.058282,-87.683337
40520,Foster,2001-02-01,708.9,387.5,240.3,16688,42.05416,-87.68356
40050,Davis,2001-02-01,3528.9,2515.3,1442.8,86409,42.04771,-87.683543
40690,Dempster,2001-02-01,673.7,415.8,278.3,16249,42.041655,-87.681602
40270,Main,2001-02-01,1213.8,655.3,377.8,28407,42.033456,-87.679538
40840,South Boulevard,2001-02-01,841.8,383.3,233.0,19300,42.027612,-87.678329
40140,Skokie,2001-02-01,2545.5,0.0,0.0,50909,42.038951,-87.751919
40890,O'Hare Airport,2001-02-01,7844.5,5748.3,6120.8,204366,41.97766526,-87.90422307
40820,Rosemont,2001-02-01,5236.2,1996.3,1327.8,118020,41.983507,-87.859388
40230,Cumberland,2001-02-01,4760.3,1561.5,1084.8,105790,41.984246,-87.838028
40750,Harlem-O'Hare,2001-02-01,2706.4,1011.5,650.3,60775,41.98227,-87.8089
41280,Jefferson Park,2001-02-01,6661.4,2645.8,1872.0,151298,41.970634,-87.760892
41330,Montrose-O'Hare,2001-02-01,1958.6,690.0,489.3,43889,41.961539,-87.743574
40550,Irving Park-O'Hare,2001-02-01,3661.0,1587.3,1130.5,84091,41.952925,-87.729229
41240,Addison-O'Hare,2001-02-01,2487.2,800.8,543.5,55121,41.94738,-87.71906
40060,Belmont-O'Hare,2001-02-01,4606.1,2231.3,1586.5,107392,41.938132,-87.712359
41020,Logan Square,2001-02-01,4636.0,2252.0,1496.0,107712,41.929728,-87.708541
40570,California/Milwaukee,2001-02-01,2912.7,1374.0,865.3,67211,41.921939,-87.69689
40670,Western/Milwaukee,2001-02-01,2844.2,1254.3,773.5,64994,41.916157,-87.687364
40590,Damen/Milwaukee,2001-02-01,4170.4,1789.5,1266.0,95630,41.909744,-87.677437
40320,Division/Milwaukee,2001-02-01,4484.4,1940.3,1324.0,102745,41.903355,-87.666496
41410,Chicago/Milwaukee,2001-02-01,2204.9,703.5,423.5,48606,41.896075,-87.655214
40490,Grand/Milwaukee,2001-02-01,1152.5,479.5,292.5,26138,41.891189,-87.647578
40370,Washington/Dearborn,2001-02-01,8890.6,2275.5,1379.0,192430,41.883164,-87.62944
40790,Monroe/Dearborn,2001-02-01,5945.8,1102.3,652.3,125934,41.880703,-87.629378
40070,Jackson/Dearborn,2001-02-01,7392.2,1903.5,1041.3,159623,41.878183,-87.629296
41340,LaSalle,2001-02-01,2208.6,354.3,191.5,46354,41.875568,-87.631722
40430,Clinton-Forest Park,2001-02-01,2278.2,744.5,648.5,51136,41.875539,-87.640984
40350,UIC-Halsted,2001-02-01,4405.3,963.0,598.8,94352,41.875474,-87.649707
40470,Racine,2001-02-01,2242.7,768.5,425.0,49627,41.87592,-87.659458
40810,Medical Center,2001-02-01,1969.9,987.5,613.0,45799,41.875706,-87.673932
40220,Western-Forest Park,2001-02-01,991.9,635.3,422.3,24067,41.875478,-87.688436
40250,Kedzie-Homan-Forest Park,2001-02-01,1297.6,853.8,564.0,31622,41.874341,-87.70604
40920,Pulaski-Forest Park,2001-02-01,1215.2,797.0,611.3,29937,41.873797,-87.725663
40970,Cicero-Forest Park,2001-02-01,1044.3,692.0,493.5,25627,41.871574,-87.745154
40010,Austin-Forest Park,2001-02-01,1527.8,639.5,400.3,34714,41.870851,-87.776812
40180,Oak Park-Forest Park,2001-02-01,1394.1,392.3,233.3,30384,41.872108,-87.791602
40980,Harlem-Forest Park,2001-02-01,802.3,390.3,276.3,18711,41.87349,-87.806961
40390,Forest Park,2001-02-01,3568.1,1183.5,771.3,79180,41.874257,-87.817318
41030,Polk,2001-02-01,2298.3,4.0,0.5,45983,41.871551,-87.66953
40830,18th,2001-02-01,997.6,0.8,0.0,19955,41.857908,-87.669147
40210,Damen-Cermak,2001-02-01,671.0,0.3,0.0,13421,41.854517,-87.675975
40740,Western-Cermak,2001-02-01,548.7,3.0,0.0,10986,41.854225,-87.685129
40440,California-Cermak,2001-02-01,797.7,0.5,0.0,15955,41.854109,-87.694774
41040,Kedzie-Cermak,2001-02-01,441.3,1.8,0.0,8833,41.853964,-87.705408
40780,Central Park,2001-02-01,455.9,2.0,0.0,9126,41.853839,-87.714842
40150,Pulaski-Cermak,2001-02-01,473.9,1.5,0.0,9484,41.853732,-87.724311
40600,Kostner,2001-02-01,314.3,0.3,0.0,6286,41.853751,-87.733258
40420,Cicero-Cermak,2001-02-01,883.0,3.5,0.0,17673,41.85182,-87.745336
40580,54th/Cermak,2001-02-01,1587.4,7.0,0.0,31776,41.85177331,-87.75669201
40020,Harlem-Lake,2001-02-01,3288.3,1563.5,926.3,75724,41.886848,-87.803176
41350,Oak Park-Lake,2001-02-01,1382.0,499.0,331.8,30962,41.886988,-87.793783
40610,Ridgeland,2001-02-01,1282.2,368.3,206.3,27942,41.887159,-87.783661
41260,Austin-Lake,2001-02-01,1902.5,877.5,533.8,43695,41.887293,-87.774135
40280,Central-Lake,2001-02-01,2372.6,1238.5,848.3,55799,41.887389,-87.76565
40700,Laramie,2001-02-01,1335.8,631.8,403.5,30856,41.887163,-87.754986
40480,Cicero-Lake,2001-02-01,1322.9,679.0,452.8,30985,41.886519,-87.744698
40030,Pulaski-Lake,2001-02-01,1530.6,876.5,618.3,36591,41.885412,-87.725404
41070,Kedzie-Lake,2001-02-01,1225.5,610.8,433.0,28685,41.884321,-87.706155
41360,California-Lake,2001-02-01,792.9,375.5,284.3,18497,41.88422,-87.696234
40170,Ashland-Lake,2001-02-01,1458.0,547.0,360.8,32791,41.885269,-87.666969
41160,Clinton-Lake,2001-02-01,1810.2,405.3,244.8,38803,41.885678,-87.641782
41120,35-Bronzeville-IIT,2001-02-01,1928.2,1015.0,689.5,45382,41.831677,-87.625826
40300,Indiana,2001-02-01,595.8,343.8,237.0,14239,41.821732,-87.621371
41270,43rd,2001-02-01,797.5,449.3,296.5,18933,41.816462,-87.619021
41080,47th-South Elevated,2001-02-01,1293.5,818.3,519.0,31218,41.809209,-87.618826
40130,51st,2001-02-01,1144.3,728.8,483.3,27733,41.80209,-87.618487
40510,Garfield-South Elevated,2001-02-01,743.4,487.3,321.3,18102,41.795172,-87.618327
41140,King Drive,2001-02-01,735.2,435.0,240.8,17406,41.78013,-87.615546
40720,East 63rd-Cottage Grove,2001-02-01,1405.1,722.8,495.8,32976,41.780309,-87.605857
40940,Halsted/63rd,2001-02-01,741.9,494.3,319.5,18093,41.778943,-87.644244
40290,Ashland/63rd,2001-02-01,1770.4,943.0,686.8,41927,41.77886,-87.663766
41290,Kimball,2001-02-01,4139.9,2143.0,1197.0,96157,41.967901,-87.713065
41180,Kedzie-Brown,2001-02-01,1486.9,886.8,584.5,35622,41.965996,-87.708821
40870,Francisco,2001-02-01,1078.8,426.5,231.3,24207,41.966046,-87.701644
41010,Rockwell,2001-02-01,1279.8,496.8,309.3,28820,41.966115,-87.6941
41480,Western-Brown,2001-02-01,3399.6,1604.8,920.8,78094,41.966163,-87.688502
40090,Damen-Brown,2001-02-01,2095.4,962.0,556.3,47980,41.966286,-87.678639
41500,Montrose-Brown,2001-02-01,2025.3,887.3,487.5,46004,41.961756,-87.675047
41460,Irving Park-Brown,2001-02-01,2299.5,838.3,474.3,51239,41.954521,-87.674868
41440,Addison-Brown,2001-02-01,1800.5,575.8,299.8,39512,41.947028,-87.674642
41310,Paulina,2001-02-01,2021.0,876.5,569.5,46204,41.943623,-87.670907
40360,Southport,2001-02-01,2608.6,945.8,548.8,58149,41.943744,-87.663619
41210,Wellington,2001-02-01,2430.6,728.3,366.8,52992,41.936033,-87.653266
40530,Diversey,2001-02-01,4270.7,1723.8,924.8,96008,41.932732,-87.653131
40660,Armitage,2001-02-01,3394.6,942.5,477.5,73572,41.918217,-87.652644
40800,Sedgwick,2001-02-01,2134.7,868.5,503.0,48179,41.910409,-87.639302
40710,Chicago/Franklin,2001-02-01,4084.8,1404.5,668.8,89988,41.89681,-87.635924
40460,Merchandise Mart,2001-02-01,6025.0,956.0,289.0,125479,41.888969,-87.633924
40930,Midway Airport,2001-02-01,7702.5,2466.5,2075.3,172216,41.78661,-87.737875
40960,Pulaski-Orange,2001-02-01,5335.4,1237.0,670.8,114338,41.799756,-87.724493
41150,Kedzie-Midway,2001-02-01,2991.3,1087.0,611.3,66619,41.804236,-87.704406
40310,Western-Orange,2001-02-01,3314.5,1007.3,561.5,72565,41.804546,-87.684019
40120,35th/Archer,2001-02-01,2106.7,671.5,353.0,46232,41.829353,-87.680622
41060,Ashland-Orange,2001-02-01,1316.3,531.8,311.0,29697,41.839234,-87.665317
41130,Halsted-Orange,2001-02-01,2500.2,694.8,443.3,54555,41.84678,-87.648088
40730,Washington/Wells,2001-02-01,7188.8,711.5,370.3,148103,41.882695,-87.63378
40040,Quincy/Wells,2001-02-01,7766.4,911.8,523.8,161069,41.878723,-87.63374
40160,LaSalle/Van Buren,2001-02-01,3603.0,272.0,128.3,73661,41.8768,-87.631739
40850,Library,2001-02-01,2534.2,755.0,334.3,55040,41.876862,-87.628196
40680,Adams/Wabash,2001-02-01,7185.7,2301.8,1141.8,157488,41.879507,-87.626037
40260,State/Lake,2001-02-01,8397.4,3733.0,2513.5,192934,41.88574,-87.627835
40380,Clark/Lake,2001-02-01,15290.2,2425.0,1677.3,322212,41.885737,-87.630886
40900,Howard,2001-03-01,6435.6,3975.4,2594.0,171836,42.019063,-87.672892
41190,Jarvis,2001-03-01,1509.0,1110.0,762.5,41797,42.015876,-87.669092
40100,Morse,2001-03-01,4521.9,3159.4,2229.0,124194,42.008362,-87.665909
41300,Loyola,2001-03-01,4899.3,3447.6,2158.8,133657,42.001073,-87.661061
40760,Granville,2001-03-01,3339.8,2398.6,1673.3,92161,41.993664,-87.659202
40880,Thorndale,2001-03-01,3089.5,1887.0,1363.8,82860,41.990259,-87.659076
41380,Bryn Mawr,2001-03-01,4580.6,2913.4,2061.5,123586,41.983504,-87.65884
40340,Berwyn,2001-03-01,3402.8,2226.8,1579.3,92312,41.977984,-87.658668
41200,Argyle,2001-03-01,2823.9,1905.2,1360.3,77093,41.973453,-87.65853
40770,Lawrence,2001-03-01,2811.4,1976.6,1523.5,77828,41.969139,-87.658493
40540,Wilson,2001-03-01,5427.0,3445.0,2106.8,145046,41.964273,-87.657588
40080,Sheridan,2001-03-01,4511.0,2971.2,1802.3,121307,41.953775,-87.654929
41420,Addison-North Main,2001-03-01,5102.2,3785.6,2336.0,140520,41.947428,-87.653626
41320,Belmont-North Main,2001-03-01,9581.4,7888.8,4878.0,269746,41.939751,-87.65338
41220,Fullerton,2001-03-01,9921.6,6034.6,3614.0,262905,41.925051,-87.652866
40650,North/Clybourn,2001-03-01,3661.2,2882.6,1992.3,102929,41.910655,-87.649177
40630,Clark/Division,2001-03-01,6902.9,5401.0,3623.8,193363,41.90392,-87.631412
41450,Chicago/State,2001-03-01,12810.8,9963.8,6284.0,356793,41.896671,-87.628176
40330,Grand/State,2001-03-01,8937.6,6631.6,4204.3,246602,41.891665,-87.628021
41660,Lake/State,2001-03-01,13990.4,6586.8,4062.0,356970,41.884809,-87.627813
41090,Monroe/State,2001-03-01,7587.1,3152.2,1492.8,188649,41.880745,-87.627696
40560,Jackson/State,2001-03-01,11979.2,4664.8,2398.0,296458,41.878153,-87.627596
41490,Harrison,2001-03-01,2874.8,1642.6,846.5,74845,41.874039,-87.627479
41400,Roosevelt,2001-03-01,6143.0,3698.6,2757.8,164671,41.867405,-87.62659
41400,Roosevelt,2001-03-01,6143.0,3698.6,2757.8,164671,41.867368,-87.627402
41000,Cermak-Chinatown,2001-03-01,2633.5,2649.0,1795.0,78362,41.853206,-87.630968
40190,Sox-35th-Dan Ryan,2001-03-01,3588.5,2328.2,1610.8,97030,41.831191,-87.630636
41230,47th-Dan Ryan,2001-03-01,2388.6,1691.6,1221.5,65894,41.810318,-87.63094
41170,Garfield-Dan Ryan,2001-03-01,4753.2,3204.8,2019.5,128672,41.79542,-87.631157
40910,63rd-Dan Ryan,2001-03-01,3701.5,2511.6,1933.5,101724,41.780536,-87.630952
40990,69th,2001-03-01,6870.0,4546.4,3027.8,185984,41.768367,-87.625724
40240,79th,2001-03-01,7446.4,4871.6,3328.8,201493,41.750419,-87.625112
41430,87th,2001-03-01,5526.5,3465.6,2174.8,147611,41.735372,-87.624717
40450,95th/Dan Ryan,2001-03-01,14521.9,7686.8,5239.8,378875,41.722377,-87.624342
41050,Linden,2001-03-01,1094.5,491.0,265.8,27596,42.073153,-87.69073
41250,Central-Evanston,2001-03-01,936.2,436.0,266.5,23843,42.063987,-87.685617
40400,Noyes,2001-03-01,567.4,422.6,193.0,15367,42.058282,-87.683337
40520,Foster,2001-03-01,661.3,377.6,215.0,17296,42.05416,-87.68356
40050,Davis,2001-03-01,3488.7,2501.8,1408.8,94895,42.04771,-87.683543
40690,Dempster,2001-03-01,667.3,442.6,306.3,18118,42.041655,-87.681602
40270,Main,2001-03-01,1200.6,740.6,404.0,31733,42.033456,-87.679538
40840,South Boulevard,2001-03-01,831.8,434.6,230.3,21394,42.027612,-87.678329
40140,Skokie,2001-03-01,2502.9,0.0,0.0,55064,42.038951,-87.751919
40890,O'Hare Airport,2001-03-01,8213.3,6472.8,6829.0,240372,41.97766526,-87.90422307
40820,Rosemont,2001-03-01,5225.5,2027.0,1318.3,130368,41.983507,-87.859388
40230,Cumberland,2001-03-01,4773.5,1990.8,1131.5,119498,41.984246,-87.838028
40750,Harlem-O'Hare,2001-03-01,2712.9,1227.8,660.5,68465,41.98227,-87.8089
41280,Jefferson Park,2001-03-01,6709.9,2904.6,1933.8,169875,41.970634,-87.760892
41330,Montrose-O'Hare,2001-03-01,1995.1,811.0,533.5,50082,41.961539,-87.743574
40550,Irving Park-O'Hare,2001-03-01,3704.4,1694.2,1117.0,94436,41.952925,-87.729229
41240,Addison-O'Hare,2001-03-01,2540.5,894.0,565.5,62624,41.94738,-87.71906
40060,Belmont-O'Hare,2001-03-01,4562.8,2232.2,1552.5,117753,41.938132,-87.712359
41020,Logan Square,2001-03-01,4664.9,2273.8,1382.3,119525,41.929728,-87.708541
40570,California/Milwaukee,2001-03-01,2957.7,1370.8,860.8,75366,41.921939,-87.69689
40670,Western/Milwaukee,2001-03-01,2913.0,1100.2,742.3,72555,41.916157,-87.687364
40590,Damen/Milwaukee,2001-03-01,4253.1,1928.6,1264.3,108269,41.909744,-87.677437
40320,Division/Milwaukee,2001-03-01,4495.3,2135.2,1350.0,114972,41.903355,-87.666496
41410,Chicago/Milwaukee,2001-03-01,2229.0,773.0,458.5,54738,41.896075,-87.655214
40490,Grand/Milwaukee,2001-03-01,1229.2,573.8,326.3,31217,41.891189,-87.647578
40370,Washington/Dearborn,2001-03-01,9148.2,2637.8,1364.5,219907,41.883164,-87.62944
40790,Monroe/Dearborn,2001-03-01,5987.7,1304.0,654.5,140867,41.880703,-87.629378
40070,Jackson/Dearborn,2001-03-01,7562.1,2407.2,1175.5,183105,41.878183,-87.629296
41340,LaSalle,2001-03-01,2292.6,447.4,239.5,53632,41.875568,-87.631722
40430,Clinton-Forest Park,2001-03-01,2310.0,821.6,666.0,57591,41.875539,-87.640984
40350,UIC-Halsted,2001-03-01,3825.9,1149.2,606.5,92342,41.875474,-87.649707
40470,Racine,2001-03-01,2249.8,968.0,543.3,56509,41.87592,-87.659458
40810,Medical Center,2001-03-01,1987.8,1051.8,688.5,51744,41.875706,-87.673932
40220,Western-Forest Park,2001-03-01,1009.0,685.2,475.0,27525,41.875478,-87.688436
40250,Kedzie-Homan-Forest Park,2001-03-01,1371.1,939.4,570.5,37143,41.874341,-87.70604
40920,Pulaski-Forest Park,2001-03-01,1222.4,913.6,636.3,34005,41.873797,-87.725663
40970,Cicero-Forest Park,2001-03-01,1042.0,739.2,480.3,28542,41.871574,-87.745154
40010,Austin-Forest Park,2001-03-01,1558.5,731.0,408.5,39576,41.870851,-87.776812
40180,Oak Park-Forest Park,2001-03-01,1428.5,487.8,236.0,34810,41.872108,-87.791602
40980,Harlem-Forest Park,2001-03-01,805.6,435.0,257.5,20928,41.87349,-87.806961
40390,Forest Park,2001-03-01,3557.2,1319.8,778.8,87973,41.874257,-87.817318
41030,Polk,2001-03-01,2358.1,9.8,0.0,51927,41.871551,-87.66953
40830,18th,2001-03-01,999.7,1.0,0.0,21998,41.857908,-87.669147
40210,Damen-Cermak,2001-03-01,689.2,1.6,0.0,15170,41.854517,-87.675975
40740,Western-Cermak,2001-03-01,561.0,2.8,0.0,12355,41.854225,-87.685129
40440,California-Cermak,2001-03-01,780.4,1.4,0.0,17176,41.854109,-87.694774
41040,Kedzie-Cermak,2001-03-01,443.0,1.4,0.0,9752,41.853964,-87.705408
40780,Central Park,2001-03-01,459.2,1.4,0.0,10110,41.853839,-87.714842
40150,Pulaski-Cermak,2001-03-01,472.5,1.4,0.0,10402,41.853732,-87.724311
40600,Kostner,2001-03-01,301.0,0.6,0.0,6624,41.853751,-87.733258
40420,Cicero-Cermak,2001-03-01,883.8,4.2,0.0,19464,41.85182,-87.745336
40580,54th/Cermak,2001-03-01,1610.1,2.2,0.0,35433,41.85177331,-87.75669201
40020,Harlem-Lake,2001-03-01,3319.5,1848.2,983.0,86201,41.886848,-87.803176
41350,Oak Park-Lake,2001-03-01,1430.8,641.6,367.5,36155,41.886988,-87.793783
40610,Ridgeland,2001-03-01,1287.4,446.0,219.8,31431,41.887159,-87.783661
41260,Austin-Lake,2001-03-01,1788.7,860.8,496.5,45641,41.887293,-87.774135
40280,Central-Lake,2001-03-01,2450.0,1372.0,821.3,64045,41.887389,-87.76565
40700,Laramie,2001-03-01,1336.4,700.8,420.5,34586,41.887163,-87.754986
40480,Cicero-Lake,2001-03-01,1339.1,742.6,484.0,35110,41.886519,-87.744698
40030,Pulaski-Lake,2001-03-01,1577.7,961.8,627.0,42027,41.885412,-87.725404
41070,Kedzie-Lake,2001-03-01,1285.8,687.0,433.3,33456,41.884321,-87.706155
41360,California-Lake,2001-03-01,829.0,439.6,284.0,21573,41.88422,-87.696234
40170,Ashland-Lake,2001-03-01,1511.9,603.4,363.5,37733,41.885269,-87.666969
41160,Clinton-Lake,2001-03-01,1881.2,469.6,291.3,44899,41.885678,-87.641782
41120,35-Bronzeville-IIT,2001-03-01,1952.1,1063.0,691.0,51026,41.831677,-87.625826
40300,Indiana,2001-03-01,604.0,354.8,241.8,16028,41.821732,-87.621371
41270,43rd,2001-03-01,816.5,475.8,291.3,21508,41.816462,-87.619021
41080,47th-South Elevated,2001-03-01,1256.6,891.2,458.8,33936,41.809209,-87.618826
40130,51st,2001-03-01,1164.2,740.2,441.0,31078,41.80209,-87.618487
40510,Garfield-South Elevated,2001-03-01,752.5,503.6,326.5,20378,41.795172,-87.618327
41140,King Drive,2001-03-01,717.3,426.4,238.5,18867,41.78013,-87.615546
40720,East 63rd-Cottage Grove,2001-03-01,1433.1,732.0,514.0,37244,41.780309,-87.605857
40940,Halsted/63rd,2001-03-01,784.8,497.2,299.8,20951,41.778943,-87.644244
40290,Ashland/63rd,2001-03-01,1765.5,964.4,650.0,46262,41.77886,-87.663766
41290,Kimball,2001-03-01,4149.5,2284.8,1252.8,107725,41.967901,-87.713065
41180,Kedzie-Brown,2001-03-01,1541.8,980.0,605.3,41240,41.965996,-87.708821
40870,Francisco,2001-03-01,1097.6,520.6,253.5,27765,41.966046,-87.701644
41010,Rockwell,2001-03-01,1278.4,563.6,289.8,32102,41.966115,-87.6941
41480,Western-Brown,2001-03-01,3327.5,1820.0,1016.0,86368,41.966163,-87.688502
40090,Damen-Brown,2001-03-01,2089.1,1104.2,578.5,53796,41.966286,-87.678639
41500,Montrose-Brown,2001-03-01,2028.5,1008.6,535.0,51809,41.961756,-87.675047
41460,Irving Park-Brown,2001-03-01,2342.7,1078.4,520.8,59014,41.954521,-87.674868
41440,Addison-Brown,2001-03-01,1830.4,781.0,295.8,45357,41.947028,-87.674642
41310,Paulina,2001-03-01,2066.7,1128.2,559.0,53344,41.943623,-87.670907
40360,Southport,2001-03-01,2645.5,1241.8,576.5,66715,41.943744,-87.663619
41210,Wellington,2001-03-01,2433.6,891.4,388.5,59551,41.936033,-87.653266
40530,Diversey,2001-03-01,4339.3,2197.6,980.5,110374,41.932732,-87.653131
40660,Armitage,2001-03-01,3450.1,1228.2,525.0,84143,41.918217,-87.652644
40800,Sedgwick,2001-03-01,2186.0,987.8,485.8,54975,41.910409,-87.639302
40710,Chicago/Franklin,2001-03-01,4013.6,1614.6,650.0,98973,41.89681,-87.635924
40460,Merchandise Mart,2001-03-01,6056.1,1120.0,385.3,140376,41.888969,-87.633924
40930,Midway Airport,2001-03-01,8005.1,2963.6,2427.0,200638,41.78661,-87.737875
40960,Pulaski-Orange,2001-03-01,5353.0,1426.4,720.8,127780,41.799756,-87.724493
41150,Kedzie-Midway,2001-03-01,3016.1,1222.8,648.8,75063,41.804236,-87.704406
40310,Western-Orange,2001-03-01,3367.0,1083.0,598.0,81880,41.804546,-87.684019
40120,35th/Archer,2001-03-01,2172.3,772.4,384.5,53191,41.829353,-87.680622
41060,Ashland-Orange,2001-03-01,1318.6,578.6,303.5,33117,41.839234,-87.665317
41130,Halsted-Orange,2001-03-01,2509.9,771.6,403.3,60689,41.84678,-87.648088
40730,Washington/Wells,2001-03-01,6490.5,643.4,238.0,146960,41.882695,-87.63378
40040,Quincy/Wells,2001-03-01,7157.1,845.0,453.5,163495,41.878723,-87.63374
40160,LaSalle/Van Buren,2001-03-01,3276.6,250.0,132.3,73864,41.8768,-87.631739
40850,Library,2001-03-01,2260.5,693.2,273.5,54290,41.876862,-87.628196
40680,Adams/Wabash,2001-03-01,7770.8,3131.0,1368.5,192086,41.879507,-87.626037
40260,State/Lake,2001-03-01,8215.4,4160.8,2593.8,211918,41.88574,-87.627835
40380,Clark/Lake,2001-03-01,16524.5,3166.8,1926.3,387078,41.885737,-87.630886
40900,Howard,2001-04-01,6300.8,4056.8,2642.4,161756,42.019063,-87.672892
41190,Jarvis,2001-04-01,1493.4,1024.5,755.2,39235,42.015876,-87.669092
40100,Morse,2001-04-01,4378.5,3135.3,2228.2,115631,42.008362,-87.665909
41300,Loyola,2001-04-01,4878.9,3350.0,2280.6,127259,42.001073,-87.661061
40760,Granville,2001-04-01,3328.6,2408.8,1705.0,88061,41.993664,-87.659202
40880,Thorndale,2001-04-01,2921.9,1853.0,1376.4,75654,41.990259,-87.659076
41380,Bryn Mawr,2001-04-01,4487.2,2949.0,2071.8,116387,41.983504,-87.65884
40340,Berwyn,2001-04-01,3343.7,2223.0,1560.4,86911,41.977984,-87.658668
41200,Argyle,2001-04-01,2765.8,1910.3,1385.2,72648,41.973453,-87.65853
40770,Lawrence,2001-04-01,2679.3,2281.3,1407.6,72429,41.969139,-87.658493
40540,Wilson,2001-04-01,5084.1,3333.5,2170.2,130951,41.964273,-87.657588
40080,Sheridan,2001-04-01,4506.0,2749.0,1852.6,114886,41.953775,-87.654929
41420,Addison-North Main,2001-04-01,6175.2,4868.8,2799.4,163152,41.947428,-87.653626
41320,Belmont-North Main,2001-04-01,9549.0,7687.0,4948.2,256018,41.939751,-87.65338
41220,Fullerton,2001-04-01,10578.0,5824.5,3625.4,263564,41.925051,-87.652866
40650,North/Clybourn,2001-04-01,3623.1,2775.0,1943.6,96903,41.910655,-87.649177
40630,Clark/Division,2001-04-01,6821.2,5165.5,3687.2,182344,41.90392,-87.631412
41450,Chicago/State,2001-04-01,12884.7,9671.8,6279.4,340662,41.896671,-87.628176
40330,Grand/State,2001-04-01,9013.0,6251.8,4191.2,235235,41.891665,-87.628021
41660,Lake/State,2001-04-01,13607.5,6153.8,4007.0,330407,41.884809,-87.627813
41090,Monroe/State,2001-04-01,7580.1,2756.5,1501.2,177714,41.880745,-87.627696
40560,Jackson/State,2001-04-01,12123.5,4111.3,2358.0,282829,41.878153,-87.627596
41490,Harrison,2001-04-01,2541.3,1354.5,964.2,63607,41.874039,-87.627479
41400,Roosevelt,2001-04-01,6032.9,3710.3,2733.4,155198,41.867405,-87.62659
41400,Roosevelt,2001-04-01,6032.9,3710.3,2733.4,155198,41.867368,-87.627402
41000,Cermak-Chinatown,2001-04-01,2633.6,2764.5,1849.8,75613,41.853206,-87.630968
40190,Sox-35th-Dan Ryan,2001-04-01,4139.2,3708.5,2594.8,114731,41.831191,-87.630636
41230,47th-Dan Ryan,2001-04-01,2306.6,1687.3,1265.8,61517,41.810318,-87.63094
41170,Garfield-Dan Ryan,2001-04-01,4628.1,3286.5,2127.6,120974,41.79542,-87.631157
40910,63rd-Dan Ryan,2001-04-01,3584.6,2555.0,1973.0,95361,41.780536,-87.630952
40990,69th,2001-04-01,6769.4,4751.8,3137.4,176851,41.768367,-87.625724
40240,79th,2001-04-01,7190.1,4789.5,3400.2,187151,41.750419,-87.625112
41430,87th,2001-04-01,5260.9,3305.8,2237.2,134888,41.735372,-87.624717
40450,95th/Dan Ryan,2001-04-01,14106.8,7716.5,5349.4,353856,41.722377,-87.624342
41050,Linden,2001-04-01,1134.3,610.8,307.4,27801,42.073153,-87.69073
41250,Central-Evanston,2001-04-01,958.2,439.0,265.8,23207,42.063987,-87.685617
40400,Noyes,2001-04-01,597.9,474.3,193.8,15421,42.058282,-87.683337
40520,Foster,2001-04-01,719.4,449.5,248.4,18148,42.05416,-87.68356
40050,Davis,2001-04-01,3578.6,2727.5,1480.6,93463,42.04771,-87.683543
40690,Dempster,2001-04-01,680.2,474.0,316.8,17764,42.041655,-87.681602
40270,Main,2001-04-01,1183.0,716.3,378.2,29599,42.033456,-87.679538
40840,South Boulevard,2001-04-01,829.7,410.3,228.0,20205,42.027612,-87.678329
40140,Skokie,2001-04-01,2593.6,0.0,0.0,54466,42.038951,-87.751919
40890,O'Hare Airport,2001-04-01,8501.8,6317.3,7021.2,238913,41.97766526,-87.90422307
40820,Rosemont,2001-04-01,5315.0,2204.0,1399.8,127430,41.983507,-87.859388
40230,Cumberland,2001-04-01,4855.1,1869.5,1206.8,115470,41.984246,-87.838028
40750,Harlem-O'Hare,2001-04-01,2684.8,1076.3,652.6,63949,41.98227,-87.8089
41280,Jefferson Park,2001-04-01,6595.1,2862.0,2043.4,160163,41.970634,-87.760892
41330,Montrose-O'Hare,2001-04-01,1963.4,791.8,561.2,47205,41.961539,-87.743574
40550,Irving Park-O'Hare,2001-04-01,3650.8,1663.0,1143.4,89035,41.952925,-87.729229
41240,Addison-O'Hare,2001-04-01,2512.7,927.8,620.0,59578,41.94738,-87.71906
40060,Belmont-O'Hare,2001-04-01,4558.4,2272.0,1651.8,113073,41.938132,-87.712359
41020,Logan Square,2001-04-01,4589.4,2283.0,1520.8,113113,41.929728,-87.708541
40570,California/Milwaukee,2001-04-01,2937.0,1439.0,883.8,71851,41.921939,-87.69689
40670,Western/Milwaukee,2001-04-01,2827.0,1198.3,795.2,68135,41.916157,-87.687364
40590,Damen/Milwaukee,2001-04-01,4262.8,1988.0,1336.2,104151,41.909744,-87.677437
40320,Division/Milwaukee,2001-04-01,4363.2,2067.3,1394.0,106867,41.903355,-87.666496
41410,Chicago/Milwaukee,2001-04-01,2234.3,744.8,461.8,52209,41.896075,-87.655214
40490,Grand/Milwaukee,2001-04-01,1189.8,531.3,313.4,28678,41.891189,-87.647578
40370,Washington/Dearborn,2001-04-01,9005.4,2517.8,1339.2,205880,41.883164,-87.62944
40790,Monroe/Dearborn,2001-04-01,5959.9,1133.8,696.8,133176,41.880703,-87.629378
40070,Jackson/Dearborn,2001-04-01,7622.3,2142.3,1266.4,174969,41.878183,-87.629296
41340,LaSalle,2001-04-01,2203.7,388.8,237.4,49020,41.875568,-87.631722
40430,Clinton-Forest Park,2001-04-01,2296.0,786.0,663.2,54676,41.875539,-87.640984
40350,UIC-Halsted,2001-04-01,4154.9,1066.0,658.8,94811,41.875474,-87.649707
40470,Racine,2001-04-01,1962.5,869.0,499.2,47185,41.87592,-87.659458
40810,Medical Center,2001-04-01,1889.1,1026.3,692.2,47237,41.875706,-87.673932
40360,Southport,2007-08-01,0.0,0.0,0.0,0,41.943744,-87.663619
40220,Western-Forest Park,2001-04-01,983.5,729.5,484.8,25996,41.875478,-87.688436
40250,Kedzie-Homan-Forest Park,2001-04-01,1448.1,966.3,677.4,37662,41.874341,-87.70604
40920,Pulaski-Forest Park,2001-04-01,1216.2,911.8,645.2,32413,41.873797,-87.725663
40970,Cicero-Forest Park,2001-04-01,1031.2,793.3,520.4,27430,41.871574,-87.745154
40010,Austin-Forest Park,2001-04-01,1552.0,750.8,452.8,37860,41.870851,-87.776812
40180,Oak Park-Forest Park,2001-04-01,1441.3,475.0,260.2,33468,41.872108,-87.791602
40980,Harlem-Forest Park,2001-04-01,837.6,473.0,300.6,20985,41.87349,-87.806961
40390,Forest Park,2001-04-01,3560.0,1311.0,840.6,84207,41.874257,-87.817318
41030,Polk,2001-04-01,2388.7,6.3,0.4,50189,41.871551,-87.66953
40830,18th,2001-04-01,1013.4,4.0,0.0,21297,41.857908,-87.669147
40210,Damen-Cermak,2001-04-01,708.6,0.0,0.0,14881,41.854517,-87.675975
40740,Western-Cermak,2001-04-01,570.5,1.8,0.0,11987,41.854225,-87.685129
40440,California-Cermak,2001-04-01,802.3,1.8,0.0,16855,41.854109,-87.694774
41040,Kedzie-Cermak,2001-04-01,420.9,1.3,0.0,8843,41.853964,-87.705408
40780,Central Park,2001-04-01,451.4,2.5,0.0,9490,41.853839,-87.714842
40150,Pulaski-Cermak,2001-04-01,445.9,2.0,0.0,9372,41.853732,-87.724311
40600,Kostner,2001-04-01,304.7,1.8,0.0,6406,41.853751,-87.733258
40420,Cicero-Cermak,2001-04-01,910.2,3.5,0.0,19128,41.85182,-87.745336
40580,54th/Cermak,2001-04-01,1612.8,3.0,0.0,33881,41.85177331,-87.75669201
40020,Harlem-Lake,2001-04-01,3359.3,1769.8,999.0,82620,41.886848,-87.803176
41350,Oak Park-Lake,2001-04-01,1442.6,616.3,401.8,34768,41.886988,-87.793783
40610,Ridgeland,2001-04-01,1313.9,410.3,230.8,30387,41.887159,-87.783661
41260,Austin-Lake,2001-04-01,1788.0,881.0,542.4,43784,41.887293,-87.774135
40280,Central-Lake,2001-04-01,2339.0,1383.5,875.6,59032,41.887389,-87.76565
40700,Laramie,2001-04-01,1242.5,674.3,417.6,30877,41.887163,-87.754986
40480,Cicero-Lake,2001-04-01,1316.0,751.3,486.0,33072,41.886519,-87.744698
40030,Pulaski-Lake,2001-04-01,1508.5,969.8,636.2,38738,41.885412,-87.725404
41070,Kedzie-Lake,2001-04-01,1260.1,681.5,463.4,31506,41.884321,-87.706155
41360,California-Lake,2001-04-01,853.2,427.0,297.2,21111,41.88422,-87.696234
40170,Ashland-Lake,2001-04-01,1503.5,623.0,388.2,36007,41.885269,-87.666969
41160,Clinton-Lake,2001-04-01,1827.5,453.0,305.0,41714,41.885678,-87.641782
41120,35-Bronzeville-IIT,2001-04-01,1824.4,1132.8,671.6,46201,41.831677,-87.625826
40300,Indiana,2001-04-01,622.2,351.5,239.4,15670,41.821732,-87.621371
41270,43rd,2001-04-01,815.8,465.8,290.8,20449,41.816462,-87.619021
41080,47th-South Elevated,2001-04-01,1188.5,829.8,471.0,30632,41.809209,-87.618826
40130,51st,2001-04-01,1161.5,715.5,463.6,29571,41.80209,-87.618487
40510,Garfield-South Elevated,2001-04-01,736.1,529.8,316.2,19159,41.795172,-87.618327
41140,King Drive,2001-04-01,678.3,404.8,244.2,17084,41.78013,-87.615546
40720,East 63rd-Cottage Grove,2001-04-01,1393.9,731.5,514.4,34770,41.780309,-87.605857
40940,Halsted/63rd,2001-04-01,757.0,506.3,318.8,19517,41.778943,-87.644244
40290,Ashland/63rd,2001-04-01,1733.0,933.8,699.8,43628,41.77886,-87.663766
41290,Kimball,2001-04-01,4094.1,2385.0,1279.2,101912,41.967901,-87.713065
41180,Kedzie-Brown,2001-04-01,1552.4,1026.3,617.8,39794,41.965996,-87.708821
40870,Francisco,2001-04-01,1112.0,482.3,275.8,26659,41.966046,-87.701644
41010,Rockwell,2001-04-01,1291.1,572.0,317.2,30988,41.966115,-87.6941
41480,Western-Brown,2001-04-01,3335.6,1768.5,965.0,81946,41.966163,-87.688502
40090,Damen-Brown,2001-04-01,2053.2,1046.8,582.8,50218,41.966286,-87.678639
41500,Montrose-Brown,2001-04-01,2005.0,976.0,535.4,48685,41.961756,-87.675047
41460,Irving Park-Brown,2001-04-01,2288.0,948.0,489.2,54285,41.954521,-87.674868
41440,Addison-Brown,2001-04-01,1789.1,641.3,304.6,41660,41.947028,-87.674642
41310,Paulina,2001-04-01,2063.4,931.5,566.8,49891,41.943623,-87.670907
40360,Southport,2001-04-01,2628.0,1074.5,549.0,62230,41.943744,-87.663619
41210,Wellington,2001-04-01,2459.6,768.8,380.4,56629,41.936033,-87.653266
40530,Diversey,2001-04-01,4294.2,1924.0,947.8,102613,41.932732,-87.653131
40660,Armitage,2001-04-01,3283.5,1173.3,522.0,76256,41.918217,-87.652644
40800,Sedgwick,2001-04-01,2206.5,1003.8,527.6,52990,41.910409,-87.639302
40710,Chicago/Franklin,2001-04-01,4056.6,1535.3,632.4,94492,41.89681,-87.635924
40460,Merchandise Mart,2001-04-01,5925.6,987.8,295.4,129865,41.888969,-87.633924
40930,Midway Airport,2001-04-01,7948.2,2793.0,2470.6,190437,41.78661,-87.737875
40960,Pulaski-Orange,2001-04-01,5038.2,1390.3,768.4,115205,41.799756,-87.724493
41150,Kedzie-Midway,2001-04-01,2987.7,1234.8,667.4,71017,41.804236,-87.704406
40310,Western-Orange,2001-04-01,3246.4,1131.8,592.8,75666,41.804546,-87.684019
40120,35th/Archer,2001-04-01,2159.4,792.3,437.6,50705,41.829353,-87.680622
41060,Ashland-Orange,2001-04-01,1292.9,595.3,346.2,31262,41.839234,-87.665317
41130,Halsted-Orange,2001-04-01,2449.3,760.8,399.8,56477,41.84678,-87.648088
40730,Washington/Wells,2001-04-01,7029.8,686.0,318.4,151961,41.882695,-87.63378
40040,Quincy/Wells,2001-04-01,7907.8,1048.3,631.6,173414,41.878723,-87.63374
40160,LaSalle/Van Buren,2001-04-01,3401.9,291.0,144.0,73323,41.8768,-87.631739
40850,Library,2001-04-01,2468.0,794.3,391.6,56962,41.876862,-87.628196
40680,Adams/Wabash,2001-04-01,7503.3,2702.3,1383.2,175294,41.879507,-87.626037
40260,State/Lake,2001-04-01,8120.9,4128.3,2638.8,200245,41.88574,-87.627835
40380,Clark/Lake,2001-04-01,16077.4,2916.8,1912.6,358856,41.885737,-87.630886
40900,Howard,2001-05-01,6513.8,4186.3,2997.6,175037,42.019063,-87.672892
41190,Jarvis,2001-05-01,1537.0,1062.0,779.6,41961,42.015876,-87.669092
40100,Morse,2001-05-01,4495.2,3070.5,2267.2,122513,42.008362,-87.665909
41300,Loyola,2001-05-01,4755.0,3280.3,2277.2,129118,42.001073,-87.661061
40760,Granville,2001-05-01,3324.1,2258.3,1667.4,90501,41.993664,-87.659202
40880,Thorndale,2001-05-01,3067.7,1871.8,1368.8,81821,41.990259,-87.659076
41380,Bryn Mawr,2001-05-01,4566.8,2814.3,2191.8,122686,41.983504,-87.65884
40340,Berwyn,2001-05-01,3388.9,2177.3,1690.4,91716,41.977984,-87.658668
41200,Argyle,2001-05-01,2786.4,1914.8,1496.6,76442,41.973453,-87.65853
40770,Lawrence,2001-05-01,2805.5,1834.5,1404.2,76079,41.969139,-87.658493
40540,Wilson,2001-05-01,5203.1,3345.5,2192.4,138813,41.964273,-87.657588
40080,Sheridan,2001-05-01,4593.8,2724.8,2015.6,122041,41.953775,-87.654929
41420,Addison-North Main,2001-05-01,7705.1,7929.5,5914.6,230804,41.947428,-87.653626
41320,Belmont-North Main,2001-05-01,9799.0,7565.3,5544.2,273560,41.939751,-87.65338
41220,Fullerton,2001-05-01,10736.7,5979.0,4038.4,280315,41.925051,-87.652866
40650,North/Clybourn,2001-05-01,3767.3,2838.3,2061.6,104541,41.910655,-87.649177
40630,Clark/Division,2001-05-01,6967.1,5182.3,3916.2,193586,41.90392,-87.631412
41450,Chicago/State,2001-05-01,13040.0,9559.8,6833.6,359287,41.896671,-87.628176
40330,Grand/State,2001-05-01,9317.0,6582.5,4957.0,256090,41.891665,-87.628021
41660,Lake/State,2001-05-01,13790.5,6444.3,4405.0,351194,41.884809,-87.627813
41090,Monroe/State,2001-05-01,7506.6,3001.0,1852.6,186413,41.880745,-87.627696
40560,Jackson/State,2001-05-01,11700.2,4148.8,2497.4,286486,41.878153,-87.627596
41490,Harrison,2001-05-01,2827.6,1453.8,1032.0,73183,41.874039,-87.627479
41400,Roosevelt,2001-05-01,6299.9,4017.5,2817.2,168753,41.867405,-87.62659
41400,Roosevelt,2001-05-01,6299.9,4017.5,2817.2,168753,41.867368,-87.627402
41000,Cermak-Chinatown,2001-05-01,2760.5,2686.0,2052.4,81738,41.853206,-87.630968
40190,Sox-35th-Dan Ryan,2001-05-01,3838.5,2585.0,2143.2,105504,41.831191,-87.630636
41230,47th-Dan Ryan,2001-05-01,2381.3,1656.8,1217.0,65100,41.810318,-87.63094
41170,Garfield-Dan Ryan,2001-05-01,4841.7,3187.0,2238.4,130457,41.79542,-87.631157
40910,63rd-Dan Ryan,2001-05-01,3733.3,2436.0,1942.8,101590,41.780536,-87.630952
40990,69th,2001-05-01,7104.8,4611.3,3217.2,190836,41.768367,-87.625724
40240,79th,2001-05-01,7565.1,4631.0,3354.2,201728,41.750419,-87.625112
41430,87th,2001-05-01,5555.1,3353.3,2224.8,146750,41.735372,-87.624717
40450,95th/Dan Ryan,2001-05-01,14591.5,7482.8,5357.8,377733,41.722377,-87.624342
41050,Linden,2001-05-01,1272.6,877.8,642.0,34719,42.073153,-87.69073
41250,Central-Evanston,2001-05-01,991.4,466.3,312.4,25238,42.063987,-87.685617
40400,Noyes,2001-05-01,628.7,389.8,294.4,16862,42.058282,-87.683337
40520,Foster,2001-05-01,733.9,412.8,294.0,19266,42.05416,-87.68356
40050,Davis,2001-05-01,3698.2,2607.5,1606.4,99823,42.04771,-87.683543
40690,Dempster,2001-05-01,725.6,516.3,349.2,19774,42.041655,-87.681602
40270,Main,2001-05-01,1226.3,769.3,446.2,32287,42.033456,-87.679538
40840,South Boulevard,2001-05-01,864.2,453.0,257.0,22110,42.027612,-87.678329
40140,Skokie,2001-05-01,2689.1,0.0,0.0,59161,42.038951,-87.751919
40890,O'Hare Airport,2001-05-01,8947.9,7017.3,7754.6,263696,41.97766526,-87.90422307
40820,Rosemont,2001-05-01,5476.7,2439.5,1558.6,138039,41.983507,-87.859388
40230,Cumberland,2001-05-01,4921.4,2222.3,1435.6,124337,41.984246,-87.838028
40750,Harlem-O'Hare,2001-05-01,2772.2,1130.5,735.2,69186,41.98227,-87.8089
41280,Jefferson Park,2001-05-01,6824.5,3020.5,2103.8,172739,41.970634,-87.760892
41330,Montrose-O'Hare,2001-05-01,2014.9,789.0,580.2,50384,41.961539,-87.743574
40550,Irving Park-O'Hare,2001-05-01,3803.0,1791.3,1268.4,97174,41.952925,-87.729229
41240,Addison-O'Hare,2001-05-01,2744.0,1128.3,785.0,68807,41.94738,-87.71906
40060,Belmont-O'Hare,2001-05-01,4645.2,2407.5,1706.6,120358,41.938132,-87.712359
41020,Logan Square,2001-05-01,4550.2,2061.5,1514.6,115923,41.929728,-87.708541
40570,California/Milwaukee,2001-05-01,2978.1,1453.5,919.0,75927,41.921939,-87.69689
40670,Western/Milwaukee,2001-05-01,2980.2,1335.0,905.2,75430,41.916157,-87.687364
40590,Damen/Milwaukee,2001-05-01,4360.0,2012.8,1405.8,111001,41.909744,-87.677437
40320,Division/Milwaukee,2001-05-01,4484.5,2049.0,1399.2,113851,41.903355,-87.666496
41410,Chicago/Milwaukee,2001-05-01,2259.5,787.5,502.8,55372,41.896075,-87.655214
40490,Grand/Milwaukee,2001-05-01,1205.6,551.3,361.0,30534,41.891189,-87.647578
40370,Washington/Dearborn,2001-05-01,9290.5,2549.8,1535.0,222264,41.883164,-87.62944
40090,Damen-Brown,2008-08-01,0.0,0.0,0.0,0,41.966286,-87.678639
40790,Monroe/Dearborn,2001-05-01,5911.4,1186.3,722.8,138409,41.880703,-87.629378
40070,Jackson/Dearborn,2001-05-01,7545.1,2311.3,1337.4,181925,41.878183,-87.629296
41340,LaSalle,2001-05-01,2249.0,386.5,237.4,52212,41.875568,-87.631722
40430,Clinton-Forest Park,2001-05-01,2331.6,806.5,716.2,58102,41.875539,-87.640984
40350,UIC-Halsted,2001-05-01,2542.5,918.0,524.8,62230,41.875474,-87.649707
40470,Racine,2001-05-01,2300.5,871.5,525.4,56725,41.87592,-87.659458
40810,Medical Center,2001-05-01,1975.5,1045.8,756.8,51428,41.875706,-87.673932
40220,Western-Forest Park,2001-05-01,1111.5,747.3,526.8,30075,41.875478,-87.688436
40250,Kedzie-Homan-Forest Park,2001-05-01,1576.5,1042.0,713.8,42420,41.874341,-87.70604
40920,Pulaski-Forest Park,2001-05-01,1294.4,864.8,671.8,35295,41.873797,-87.725663
40970,Cicero-Forest Park,2001-05-01,1077.9,816.5,540.0,29680,41.871574,-87.745154
40010,Austin-Forest Park,2001-05-01,1631.2,751.0,500.0,41390,41.870851,-87.776812
40180,Oak Park-Forest Park,2001-05-01,1492.2,487.3,305.0,36303,41.872108,-87.791602
40980,Harlem-Forest Park,2001-05-01,855.1,466.8,323.0,22295,41.87349,-87.806961
40390,Forest Park,2001-05-01,3635.0,1368.0,884.4,89865,41.874257,-87.817318
41030,Polk,2001-05-01,2384.7,5.0,0.0,52483,41.871551,-87.66953
40830,18th,2001-05-01,1029.7,5.5,0.0,22675,41.857908,-87.669147
40210,Damen-Cermak,2001-05-01,726.3,0.3,0.0,15979,41.854517,-87.675975
40740,Western-Cermak,2001-05-01,604.0,2.5,0.0,13298,41.854225,-87.685129
40440,California-Cermak,2001-05-01,776.9,1.3,0.0,17096,41.854109,-87.694774
41040,Kedzie-Cermak,2001-05-01,452.4,0.8,0.0,9955,41.853964,-87.705408
40780,Central Park,2001-05-01,492.8,1.0,0.0,10845,41.853839,-87.714842
40150,Pulaski-Cermak,2001-05-01,492.0,2.5,0.0,10834,41.853732,-87.724311
40600,Kostner,2001-05-01,314.5,0.3,0.0,6919,41.853751,-87.733258
40420,Cicero-Cermak,2001-05-01,934.5,2.3,0.0,20567,41.85182,-87.745336
40580,54th/Cermak,2001-05-01,1633.5,3.8,0.2,35953,41.85177331,-87.75669201
40020,Harlem-Lake,2001-05-01,3421.5,1789.8,1038.2,87624,41.886848,-87.803176
41350,Oak Park-Lake,2001-05-01,1465.2,647.0,446.0,37053,41.886988,-87.793783
40610,Ridgeland,2001-05-01,1382.4,453.5,253.0,33491,41.887159,-87.783661
41260,Austin-Lake,2001-05-01,1829.7,858.5,556.8,46472,41.887293,-87.774135
40280,Central-Lake,2001-05-01,2411.4,1309.3,892.4,62749,41.887389,-87.76565
40700,Laramie,2001-05-01,1288.5,682.5,431.6,33234,41.887163,-87.754986
40480,Cicero-Lake,2001-05-01,1398.5,736.5,499.8,36212,41.886519,-87.744698
40030,Pulaski-Lake,2001-05-01,1576.0,930.0,656.6,41675,41.885412,-87.725404
41070,Kedzie-Lake,2001-05-01,1372.2,703.0,479.4,35398,41.884321,-87.706155
41360,California-Lake,2001-05-01,890.1,409.8,315.8,22801,41.88422,-87.696234
40170,Ashland-Lake,2001-05-01,1551.5,626.5,394.0,38610,41.885269,-87.666969
41160,Clinton-Lake,2001-05-01,1786.1,456.3,291.4,42576,41.885678,-87.641782
41120,35-Bronzeville-IIT,2001-05-01,1824.7,922.3,627.2,46969,41.831677,-87.625826
40300,Indiana,2001-05-01,648.8,325.0,221.2,16680,41.821732,-87.621371
41270,43rd,2001-05-01,850.8,471.0,297.8,22090,41.816462,-87.619021
41080,47th-South Elevated,2001-05-01,1198.0,751.0,465.6,31688,41.809209,-87.618826
40130,51st,2001-05-01,1217.4,722.5,421.8,31782,41.80209,-87.618487
40510,Garfield-South Elevated,2001-05-01,761.3,508.8,340.4,20485,41.795172,-87.618327
41140,King Drive,2001-05-01,700.5,418.5,252.8,18349,41.78013,-87.615546
40720,East 63rd-Cottage Grove,2001-05-01,1424.4,719.5,526.8,36848,41.780309,-87.605857
40940,Halsted/63rd,2001-05-01,780.5,487.5,303.2,20637,41.778943,-87.644244
40290,Ashland/63rd,2001-05-01,1787.9,890.8,657.4,46183,41.77886,-87.663766
41290,Kimball,2001-05-01,4176.7,2288.5,1400.2,108042,41.967901,-87.713065
41180,Kedzie-Brown,2001-05-01,1635.3,1049.0,697.0,43657,41.965996,-87.708821
40870,Francisco,2001-05-01,1126.6,501.3,293.4,28257,41.966046,-87.701644
41010,Rockwell,2001-05-01,1341.1,574.0,347.0,33535,41.966115,-87.6941
41480,Western-Brown,2001-05-01,3445.5,1868.5,1085.2,88702,41.966163,-87.688502
40090,Damen-Brown,2001-05-01,2112.0,1045.8,626.0,53777,41.966286,-87.678639
41500,Montrose-Brown,2001-05-01,2025.3,971.5,556.2,51224,41.961756,-87.675047
41460,Irving Park-Brown,2001-05-01,2348.8,957.8,534.6,58178,41.954521,-87.674868
41440,Addison-Brown,2001-05-01,1896.7,684.3,348.4,46207,41.947028,-87.674642
41310,Paulina,2001-05-01,2053.5,978.3,603.0,52104,41.943623,-87.670907
40360,Southport,2001-05-01,2637.5,1050.8,603.4,65245,41.943744,-87.663619
41210,Wellington,2001-05-01,2462.9,706.3,408.0,59048,41.936033,-87.653266
40530,Diversey,2001-05-01,4382.5,1854.3,1079.4,109228,41.932732,-87.653131
40660,Armitage,2001-05-01,3532.6,1216.8,605.2,85611,41.918217,-87.652644
40800,Sedgwick,2001-05-01,2302.8,983.0,631.4,57750,41.910409,-87.639302
40710,Chicago/Franklin,2001-05-01,4031.4,1400.8,665.2,97620,41.89681,-87.635924
40460,Merchandise Mart,2001-05-01,5983.4,1016.5,305.4,137228,41.888969,-87.633924
40930,Midway Airport,2001-05-01,8247.0,3061.0,2764.4,207499,41.78661,-87.737875
40960,Pulaski-Orange,2001-05-01,5522.9,1429.3,835.4,131398,41.799756,-87.724493
41150,Kedzie-Midway,2001-05-01,3097.2,1194.8,731.0,76572,41.804236,-87.704406
40310,Western-Orange,2001-05-01,3405.0,1117.8,647.2,82616,41.804546,-87.684019
40120,35th/Archer,2001-05-01,2274.0,799.5,437.0,55412,41.829353,-87.680622
41060,Ashland-Orange,2001-05-01,1358.3,595.8,350.6,34018,41.839234,-87.665317
41130,Halsted-Orange,2001-05-01,2538.2,762.0,436.2,61069,41.84678,-87.648088
40730,Washington/Wells,2001-05-01,7209.1,721.8,379.8,163387,41.882695,-87.63378
40040,Quincy/Wells,2001-05-01,7979.1,1084.5,726.4,183511,41.878723,-87.63374
40160,LaSalle/Van Buren,2001-05-01,3484.4,320.0,174.2,78807,41.8768,-87.631739
40850,Library,2001-05-01,2476.2,765.5,380.0,59438,41.876862,-87.628196
40680,Adams/Wabash,2001-05-01,7477.5,2657.3,1501.8,182644,41.879507,-87.626037
40260,State/Lake,2001-05-01,8209.2,4051.3,2979.6,211706,41.88574,-87.627835
40380,Clark/Lake,2001-05-01,16358.2,2928.3,2067.6,381932,41.885737,-87.630886
40900,Howard,2001-06-01,6379.9,4427.0,3285.5,169255,42.019063,-87.672892
41190,Jarvis,2001-06-01,1511.2,1148.0,903.0,41087,42.015876,-87.669092
40100,Morse,2001-06-01,4372.4,3261.6,2504.0,118144,42.008362,-87.665909
41300,Loyola,2001-06-01,4658.7,3358.4,2573.5,124919,42.001073,-87.661061
40760,Granville,2001-06-01,3324.1,2417.6,1942.3,89664,41.993664,-87.659202
40880,Thorndale,2001-06-01,2834.5,1971.2,1585.3,75721,41.990259,-87.659076
41380,Bryn Mawr,2001-06-01,4472.3,3066.6,2483.5,119186,41.983504,-87.65884
40340,Berwyn,2001-06-01,3359.7,2508.6,2040.8,91259,41.977984,-87.658668
41200,Argyle,2001-06-01,2776.8,2035.2,1716.0,75353,41.973453,-87.65853
40770,Lawrence,2001-06-01,2743.2,1996.6,1532.8,73722,41.969139,-87.658493
40540,Wilson,2001-06-01,5022.8,3462.4,2619.5,133268,41.964273,-87.657588
40080,Sheridan,2001-06-01,4720.0,3155.4,2522.8,124988,41.953775,-87.654929
41420,Addison-North Main,2001-06-01,7600.8,6598.2,7497.3,222596,41.947428,-87.653626
41320,Belmont-North Main,2001-06-01,10259.9,8565.2,8714.5,293142,41.939751,-87.65338
41220,Fullerton,2001-06-01,10103.6,6500.4,4873.8,264172,41.925051,-87.652866
40650,North/Clybourn,2001-06-01,3718.9,3029.6,2401.3,102849,41.910655,-87.649177
40630,Clark/Division,2001-06-01,7191.0,5898.0,4732.5,199431,41.90392,-87.631412
41450,Chicago/State,2001-06-01,13191.6,10492.2,7214.0,358340,41.896671,-87.628176
40330,Grand/State,2001-06-01,10106.5,7561.8,5826.3,273350,41.891665,-87.628021
41660,Lake/State,2001-06-01,14203.7,6797.2,5071.0,352548,41.884809,-87.627813
41090,Monroe/State,2001-06-01,7733.9,3511.6,2023.8,188065,41.880745,-87.627696
40560,Jackson/State,2001-06-01,11786.3,5970.8,3429.3,291083,41.878153,-87.627596
41490,Harrison,2001-06-01,2082.5,1565.6,1132.5,56090,41.874039,-87.627479
41400,Roosevelt,2001-06-01,6151.0,4762.2,3633.0,167515,41.867405,-87.62659
41400,Roosevelt,2001-06-01,6151.0,4762.2,3633.0,167515,41.867368,-87.627402
41000,Cermak-Chinatown,2001-06-01,2813.0,2885.4,2170.0,82179,41.853206,-87.630968
40190,Sox-35th-Dan Ryan,2001-06-01,4254.5,4217.6,3145.0,123012,41.831191,-87.630636
41230,47th-Dan Ryan,2001-06-01,2262.7,1723.0,1281.3,61257,41.810318,-87.63094
41170,Garfield-Dan Ryan,2001-06-01,4649.0,3304.6,2452.5,123962,41.79542,-87.631157
40910,63rd-Dan Ryan,2001-06-01,3584.4,2570.0,2135.3,96663,41.780536,-87.630952
40990,69th,2001-06-01,6961.2,4779.4,3445.5,183865,41.768367,-87.625724
40240,79th,2001-06-01,7459.9,4993.4,3657.8,196256,41.750419,-87.625112
41430,87th,2001-06-01,5487.3,3586.0,2403.3,142776,41.735372,-87.624717
40450,95th/Dan Ryan,2001-06-01,14110.3,8100.8,5811.0,360064,41.722377,-87.624342
41050,Linden,2001-06-01,1335.3,889.6,760.8,35532,42.073153,-87.69073
41250,Central-Evanston,2001-06-01,1039.4,482.6,360.5,25683,42.063987,-87.685617
40400,Noyes,2001-06-01,614.6,478.0,245.8,16280,42.058282,-87.683337
40520,Foster,2001-06-01,708.1,442.2,306.8,18309,42.05416,-87.68356
40050,Davis,2001-06-01,3746.4,2657.2,1740.5,98923,42.04771,-87.683543
40690,Dempster,2001-06-01,733.3,509.4,426.3,19651,42.041655,-87.681602
40270,Main,2001-06-01,1237.5,930.6,621.8,33127,42.033456,-87.679538
40840,South Boulevard,2001-06-01,874.0,466.2,309.5,21922,42.027612,-87.678329
40140,Skokie,2001-06-01,2784.2,82.2,0.0,58879,42.038951,-87.751919
40890,O'Hare Airport,2001-06-01,9563.4,7145.2,7992.5,268527,41.97766526,-87.90422307
40820,Rosemont,2001-06-01,5651.5,2763.0,1763.3,139549,41.983507,-87.859388
40230,Cumberland,2001-06-01,5182.2,2923.4,1895.0,131023,41.984246,-87.838028
40750,Harlem-O'Hare,2001-06-01,2768.2,1259.8,805.3,67652,41.98227,-87.8089
41280,Jefferson Park,2001-06-01,6836.1,3275.2,2343.3,169308,41.970634,-87.760892
41330,Montrose-O'Hare,2001-06-01,2037.2,906.8,641.5,49881,41.961539,-87.743574
40550,Irving Park-O'Hare,2001-06-01,3860.2,1982.8,1388.8,96534,41.952925,-87.729229
41240,Addison-O'Hare,2001-06-01,2647.1,1195.0,868.8,65039,41.94738,-87.71906
40060,Belmont-O'Hare,2001-06-01,4681.4,2604.6,1929.8,119051,41.938132,-87.712359
41020,Logan Square,2001-06-01,4403.0,2606.0,1615.3,111955,41.929728,-87.708541
40570,California/Milwaukee,2001-06-01,2948.0,1764.6,1052.5,74941,41.921939,-87.69689
40670,Western/Milwaukee,2001-06-01,2992.2,1650.2,1040.5,75250,41.916157,-87.687364
40590,Damen/Milwaukee,2001-06-01,4384.3,2385.8,1653.5,110613,41.909744,-87.677437
40320,Division/Milwaukee,2001-06-01,4276.8,2240.6,1581.8,107342,41.903355,-87.666496
41410,Chicago/Milwaukee,2001-06-01,2275.2,892.0,578.0,54551,41.896075,-87.655214
40490,Grand/Milwaukee,2001-06-01,1243.0,600.4,407.0,30734,41.891189,-87.647578
40370,Washington/Dearborn,2001-06-01,9599.7,3176.0,1851.3,224879,41.883164,-87.62944
40790,Monroe/Dearborn,2001-06-01,5868.1,1636.2,858.5,134845,41.880703,-87.629378
40070,Jackson/Dearborn,2001-06-01,7641.4,4000.2,1982.8,188401,41.878183,-87.629296
41340,LaSalle,2001-06-01,2089.8,436.6,305.0,47289,41.875568,-87.631722
40430,Clinton-Forest Park,2001-06-01,2441.7,889.8,758.8,58759,41.875539,-87.640984
40350,UIC-Halsted,2001-06-01,2910.0,886.8,591.8,67910,41.875474,-87.649707
40470,Racine,2001-06-01,1814.0,944.8,587.0,45166,41.87592,-87.659458
40810,Medical Center,2001-06-01,1989.7,1104.0,754.3,50321,41.875706,-87.673932
40220,Western-Forest Park,2001-06-01,1048.2,853.6,588.3,28633,41.875478,-87.688436
40250,Kedzie-Homan-Forest Park,2001-06-01,1566.8,1094.6,794.3,41552,41.874341,-87.70604
40920,Pulaski-Forest Park,2001-06-01,1288.0,1015.4,717.0,34992,41.873797,-87.725663
40970,Cicero-Forest Park,2001-06-01,1057.6,878.6,590.3,28964,41.871574,-87.745154
40010,Austin-Forest Park,2001-06-01,1657.1,877.0,561.5,41431,41.870851,-87.776812
40180,Oak Park-Forest Park,2001-06-01,1511.5,612.0,383.8,36336,41.872108,-87.791602
40980,Harlem-Forest Park,2001-06-01,855.2,496.0,355.5,21861,41.87349,-87.806961
40390,Forest Park,2001-06-01,3695.3,1716.8,1068.5,90459,41.874257,-87.817318
41030,Polk,2001-06-01,2438.8,35.4,0.0,51391,41.871551,-87.66953
40830,18th,2001-06-01,1021.1,3.8,0.0,21462,41.857908,-87.669147
40210,Damen-Cermak,2001-06-01,748.2,1.0,0.0,15718,41.854517,-87.675975
40740,Western-Cermak,2001-06-01,603.8,5.0,0.0,12704,41.854225,-87.685129
40440,California-Cermak,2001-06-01,814.0,3.2,0.0,17109,41.854109,-87.694774
41040,Kedzie-Cermak,2001-06-01,419.1,3.4,0.0,8819,41.853964,-87.705408
40780,Central Park,2001-06-01,467.5,3.6,0.0,9835,41.853839,-87.714842
40150,Pulaski-Cermak,2001-06-01,497.3,2.0,0.0,10454,41.853732,-87.724311
40600,Kostner,2001-06-01,323.7,1.0,0.0,6803,41.853751,-87.733258
40420,Cicero-Cermak,2001-06-01,925.5,5.8,0.0,19464,41.85182,-87.745336
40580,54th/Cermak,2001-06-01,1673.7,2.4,0.0,35159,41.85177331,-87.75669201
40020,Harlem-Lake,2001-06-01,3582.7,2074.0,1246.5,90592,41.886848,-87.803176
41350,Oak Park-Lake,2001-06-01,1514.1,734.2,555.0,37688,41.886988,-87.793783
40610,Ridgeland,2001-06-01,1514.3,593.4,331.0,36092,41.887159,-87.783661
41260,Austin-Lake,2001-06-01,1755.5,950.2,562.5,43867,41.887293,-87.774135
40280,Central-Lake,2001-06-01,2236.8,1348.4,936.5,57461,41.887389,-87.76565
40700,Laramie,2001-06-01,1233.7,749.0,486.5,31599,41.887163,-87.754986
40480,Cicero-Lake,2001-06-01,1311.2,797.8,529.0,33641,41.886519,-87.744698
40030,Pulaski-Lake,2001-06-01,1470.6,986.8,706.5,38642,41.885412,-87.725404
41670,Conservatory,2001-06-01,0.0,67.6,0.0,338,41.884904,-87.716523
41070,Kedzie-Lake,2001-06-01,1237.3,677.6,505.8,31395,41.884321,-87.706155
41360,California-Lake,2001-06-01,837.7,462.4,328.0,21215,41.88422,-87.696234
40170,Ashland-Lake,2001-06-01,1511.4,692.0,441.5,36965,41.885269,-87.666969
41160,Clinton-Lake,2001-06-01,1820.2,563.8,404.3,42661,41.885678,-87.641782
41120,35-Bronzeville-IIT,2001-06-01,1727.1,1096.2,703.5,44564,41.831677,-87.625826
40300,Indiana,2001-06-01,646.3,374.4,257.3,16474,41.821732,-87.621371
41270,43rd,2001-06-01,850.4,507.4,312.0,21643,41.816462,-87.619021
41080,47th-South Elevated,2001-06-01,1228.6,817.4,521.3,31972,41.809209,-87.618826
40130,51st,2001-06-01,1192.1,788.4,497.3,30965,41.80209,-87.618487
40510,Garfield-South Elevated,2001-06-01,793.0,578.2,383.8,21080,41.795172,-87.618327
41140,King Drive,2001-06-01,670.2,416.6,277.3,17267,41.78013,-87.615546
40720,East 63rd-Cottage Grove,2001-06-01,1454.7,823.8,565.8,36930,41.780309,-87.605857
40940,Halsted/63rd,2001-06-01,769.5,524.6,305.0,20002,41.778943,-87.644244
40290,Ashland/63rd,2001-06-01,1779.6,996.8,704.0,45171,41.77886,-87.663766
41290,Kimball,2001-06-01,4060.1,2489.0,1594.0,104084,41.967901,-87.713065
41180,Kedzie-Brown,2001-06-01,1637.8,1138.4,792.5,43255,41.965996,-87.708821
40870,Francisco,2001-06-01,1143.8,556.4,383.0,28333,41.966046,-87.701644
41010,Rockwell,2001-06-01,1348.0,679.4,459.5,33543,41.966115,-87.6941
41480,Western-Brown,2001-06-01,3440.6,2000.0,1334.0,87589,41.966163,-87.688502
40090,Damen-Brown,2001-06-01,2090.6,1202.4,801.0,53118,41.966286,-87.678639
41500,Montrose-Brown,2001-06-01,2079.0,1154.4,824.0,52727,41.961756,-87.675047
41460,Irving Park-Brown,2001-06-01,2394.4,1260.4,799.5,59783,41.954521,-87.674868
41440,Addison-Brown,2001-06-01,1847.7,887.2,492.0,45206,41.947028,-87.674642
41310,Paulina,2001-06-01,2130.4,1207.8,795.0,53957,41.943623,-87.670907
40360,Southport,2001-06-01,2774.6,1326.6,905.8,68522,41.943744,-87.663619
41210,Wellington,2001-06-01,2541.0,984.0,660.0,60920,41.936033,-87.653266
40530,Diversey,2001-06-01,4554.1,2273.4,1476.8,112911,41.932732,-87.653131
40660,Armitage,2001-06-01,3244.8,1495.0,869.8,79094,41.918217,-87.652644
40800,Sedgwick,2001-06-01,2404.0,1757.4,1194.8,64051,41.910409,-87.639302
40710,Chicago/Franklin,2001-06-01,4069.3,1530.4,773.3,96200,41.89681,-87.635924
40460,Merchandise Mart,2001-06-01,6172.9,1074.6,515.3,137064,41.888969,-87.633924
40930,Midway Airport,2001-06-01,8341.5,3615.4,3084.3,205586,41.78661,-87.737875
40960,Pulaski-Orange,2001-06-01,4958.6,1733.2,1057.3,117026,41.799756,-87.724493
41150,Kedzie-Midway,2001-06-01,2952.1,1340.6,798.5,71891,41.804236,-87.704406
40310,Western-Orange,2001-06-01,3279.1,1265.0,741.5,78153,41.804546,-87.684019
40120,35th/Archer,2001-06-01,2219.8,945.8,532.0,53473,41.829353,-87.680622
41060,Ashland-Orange,2001-06-01,1291.2,666.8,392.0,32018,41.839234,-87.665317
41130,Halsted-Orange,2001-06-01,2385.4,908.0,553.0,56846,41.84678,-87.648088
40730,Washington/Wells,2001-06-01,7365.6,985.0,461.3,161447,41.882695,-87.63378
40040,Quincy/Wells,2001-06-01,8220.2,1165.6,793.0,181625,41.878723,-87.63374
40160,LaSalle/Van Buren,2001-06-01,3541.5,324.8,182.5,76726,41.8768,-87.631739
40850,Library,2001-06-01,2351.0,1058.4,534.8,56802,41.876862,-87.628196
40680,Adams/Wabash,2001-06-01,7595.7,4811.2,2323.8,192860,41.879507,-87.626037
40260,State/Lake,2001-06-01,8523.9,4580.6,3496.3,215890,41.88574,-87.627835
40380,Clark/Lake,2001-06-01,16736.1,3270.2,2440.8,377572,41.885737,-87.630886
40900,Howard,2001-07-01,6441.3,4349.5,3288.5,172396,42.019063,-87.672892
41190,Jarvis,2001-07-01,1483.0,1075.8,834.0,40450,42.015876,-87.669092
40100,Morse,2001-07-01,4360.8,3175.0,2450.7,118981,42.008362,-87.665909
41300,Loyola,2001-07-01,4786.3,3388.0,2617.2,129767,42.001073,-87.661061
40760,Granville,2001-07-01,3396.1,2415.3,1914.7,92467,41.993664,-87.659202
40880,Thorndale,2001-07-01,2738.5,1920.3,1483.3,74089,41.990259,-87.659076
41380,Bryn Mawr,2001-07-01,4427.7,2883.0,2391.5,118863,41.983504,-87.65884
40340,Berwyn,2001-07-01,3391.0,2336.8,1784.2,91263,41.977984,-87.658668
41200,Argyle,2001-07-01,2739.9,2010.3,1647.8,75465,41.973453,-87.65853
40770,Lawrence,2001-07-01,2691.8,1948.0,1488.5,73250,41.969139,-87.658493
40540,Wilson,2001-07-01,5072.4,3490.5,2347.0,134565,41.964273,-87.657588
40080,Sheridan,2001-07-01,4727.1,3363.3,2373.2,126962,41.953775,-87.654929
41420,Addison-North Main,2001-07-01,8372.8,8477.3,5305.2,241569,41.947428,-87.653626
41320,Belmont-North Main,2001-07-01,10257.4,8454.3,6062.5,285598,41.939751,-87.65338
41220,Fullerton,2001-07-01,9504.8,6736.0,4717.3,254849,41.925051,-87.652866
40650,North/Clybourn,2001-07-01,3727.8,2978.5,2241.3,103646,41.910655,-87.649177
40630,Clark/Division,2001-07-01,7251.3,5854.0,4709.3,203949,41.90392,-87.631412
41450,Chicago/State,2001-07-01,13857.4,10993.5,8002.3,382994,41.896671,-87.628176
40330,Grand/State,2001-07-01,10423.4,8403.0,6771.5,293133,41.891665,-87.628021
41660,Lake/State,2001-07-01,14398.1,6785.0,4893.8,358863,41.884809,-87.627813
41090,Monroe/State,2001-07-01,7999.3,3529.5,2575.7,197558,41.880745,-87.627696
40560,Jackson/State,2001-07-01,11982.9,5526.8,5240.5,305191,41.878153,-87.627596
41490,Harrison,2001-07-01,2113.0,1542.0,1169.3,57556,41.874039,-87.627479
41400,Roosevelt,2001-07-01,6602.8,5426.8,3475.2,181216,41.867405,-87.62659
41400,Roosevelt,2001-07-01,6602.8,5426.8,3475.2,181216,41.867368,-87.627402
41000,Cermak-Chinatown,2001-07-01,2983.0,2883.8,2427.3,88741,41.853206,-87.630968
40190,Sox-35th-Dan Ryan,2001-07-01,4287.3,3366.0,3205.7,122732,41.831191,-87.630636
41230,47th-Dan Ryan,2001-07-01,2298.3,1665.8,1339.3,62964,41.810318,-87.63094
41170,Garfield-Dan Ryan,2001-07-01,4709.0,3285.5,2481.3,126919,41.79542,-87.631157
40910,63rd-Dan Ryan,2001-07-01,3610.1,2520.8,2101.0,98501,41.780536,-87.630952
40990,69th,2001-07-01,6912.9,4636.5,3521.3,184844,41.768367,-87.625724
40240,79th,2001-07-01,7543.1,4819.0,3821.0,200608,41.750419,-87.625112
41430,87th,2001-07-01,5509.5,3541.3,2736.7,146285,41.735372,-87.624717
40450,95th/Dan Ryan,2001-07-01,14182.5,7694.0,5941.7,364258,41.722377,-87.624342
41050,Linden,2001-07-01,1374.6,1004.8,629.7,36664,42.073153,-87.69073
41250,Central-Evanston,2001-07-01,1015.1,453.5,373.0,25370,42.063987,-87.685617
40400,Noyes,2001-07-01,686.9,551.8,299.0,18426,42.058282,-87.683337
40520,Foster,2001-07-01,760.6,399.5,274.3,19216,42.05416,-87.68356
40050,Davis,2001-07-01,3765.0,2671.0,1650.2,99650,42.04771,-87.683543
40690,Dempster,2001-07-01,770.7,506.5,397.2,20593,42.041655,-87.681602
40270,Main,2001-07-01,1239.4,767.0,473.8,31938,42.033456,-87.679538
40840,South Boulevard,2001-07-01,895.5,490.3,294.8,22536,42.027612,-87.678329
40140,Skokie,2001-07-01,2855.6,125.5,225.0,61820,42.038951,-87.751919
40890,O'Hare Airport,2001-07-01,9732.3,7588.5,7906.8,282173,41.97766526,-87.90422307
40820,Rosemont,2001-07-01,5737.9,3106.8,2040.3,145165,41.983507,-87.859388
40230,Cumberland,2001-07-01,5369.3,3408.8,2251.8,139901,41.984246,-87.838028
40750,Harlem-O'Hare,2001-07-01,2843.4,1309.0,881.8,70238,41.98227,-87.8089
41280,Jefferson Park,2001-07-01,6898.0,3287.0,2516.0,173101,41.970634,-87.760892
41330,Montrose-O'Hare,2001-07-01,2062.0,916.5,708.8,51220,41.961539,-87.743574
40550,Irving Park-O'Hare,2001-07-01,3930.7,1954.0,1464.0,99145,41.952925,-87.729229
41240,Addison-O'Hare,2001-07-01,2669.5,1173.3,894.7,66121,41.94738,-87.71906
40060,Belmont-O'Hare,2001-07-01,4672.6,2558.5,2078.7,120830,41.938132,-87.712359
41020,Logan Square,2001-07-01,4703.5,2455.3,1856.8,119736,41.929728,-87.708541
40570,California/Milwaukee,2001-07-01,2971.5,1590.8,1081.5,75253,41.921939,-87.69689
40670,Western/Milwaukee,2001-07-01,2947.9,1470.5,1075.5,74241,41.916157,-87.687364
40590,Damen/Milwaukee,2001-07-01,4475.0,2390.3,1767.5,114141,41.909744,-87.677437
40320,Division/Milwaukee,2001-07-01,4271.8,2150.5,1612.5,107984,41.903355,-87.666496
41410,Chicago/Milwaukee,2001-07-01,2330.8,877.3,632.0,56247,41.896075,-87.655214
40490,Grand/Milwaukee,2001-07-01,1241.6,598.8,430.7,31053,41.891189,-87.647578
40370,Washington/Dearborn,2001-07-01,9897.6,3266.5,2236.8,234336,41.883164,-87.62944
40790,Monroe/Dearborn,2001-07-01,6121.0,1711.5,1321.7,143318,41.880703,-87.629378
40070,Jackson/Dearborn,2001-07-01,8275.2,3630.5,3955.3,212034,41.878183,-87.629296
41340,LaSalle,2001-07-01,2102.3,454.5,321.8,47898,41.875568,-87.631722
40430,Clinton-Forest Park,2001-07-01,2431.5,894.0,796.0,59414,41.875539,-87.640984
40350,UIC-Halsted,2001-07-01,2965.2,999.5,749.5,70764,41.875474,-87.649707
40470,Racine,2001-07-01,1675.8,992.8,652.2,43076,41.87592,-87.659458
40810,Medical Center,2001-07-01,2090.9,1152.3,834.5,53524,41.875706,-87.673932
40220,Western-Forest Park,2001-07-01,1091.1,846.3,655.2,30230,41.875478,-87.688436
40250,Kedzie-Homan-Forest Park,2001-07-01,1576.6,1080.3,809.0,42284,41.874341,-87.70604
40920,Pulaski-Forest Park,2001-07-01,1305.7,934.3,796.8,35937,41.873797,-87.725663
40970,Cicero-Forest Park,2001-07-01,1070.7,842.8,613.7,29538,41.871574,-87.745154
40010,Austin-Forest Park,2001-07-01,1653.0,801.5,629.7,41698,41.870851,-87.776812
40180,Oak Park-Forest Park,2001-07-01,1546.6,594.5,403.7,37279,41.872108,-87.791602
40980,Harlem-Forest Park,2001-07-01,881.3,504.8,404.7,22955,41.87349,-87.806961
40390,Forest Park,2001-07-01,3825.8,1715.3,1299.8,95002,41.874257,-87.817318
41030,Polk,2001-07-01,2538.4,5.8,0.7,53333,41.871551,-87.66953
40830,18th,2001-07-01,1066.3,4.0,2.3,22422,41.857908,-87.669147
40210,Damen-Cermak,2001-07-01,756.9,1.8,0.5,15905,41.854517,-87.675975
40740,Western-Cermak,2001-07-01,614.1,2.0,0.3,12907,41.854225,-87.685129
40440,California-Cermak,2001-07-01,837.0,1.0,0.8,17587,41.854109,-87.694774
41040,Kedzie-Cermak,2001-07-01,408.1,1.5,0.8,8581,41.853964,-87.705408
40780,Central Park,2001-07-01,438.7,2.5,0.0,9223,41.853839,-87.714842
40150,Pulaski-Cermak,2001-07-01,480.0,1.8,0.3,10088,41.853732,-87.724311
40600,Kostner,2001-07-01,295.2,0.0,0.2,6200,41.853751,-87.733258
40420,Cicero-Cermak,2001-07-01,980.1,5.3,1.2,20611,41.85182,-87.745336
40580,54th/Cermak,2001-07-01,1742.8,2.0,0.5,36610,41.85177331,-87.75669201
40020,Harlem-Lake,2001-07-01,3726.2,2126.0,1411.7,95224,41.886848,-87.803176
41350,Oak Park-Lake,2001-07-01,1535.0,745.3,536.7,38437,41.886988,-87.793783
40610,Ridgeland,2001-07-01,1548.4,591.3,394.8,37251,41.887159,-87.783661
41260,Austin-Lake,2001-07-01,1809.3,929.3,668.8,45726,41.887293,-87.774135
40280,Central-Lake,2001-07-01,2257.0,1334.5,970.0,58554,41.887389,-87.76565
40700,Laramie,2001-07-01,1299.0,724.0,486.2,33092,41.887163,-87.754986
40480,Cicero-Lake,2001-07-01,1293.4,756.0,570.5,33608,41.886519,-87.744698
40030,Pulaski-Lake,2001-07-01,1421.5,902.0,676.8,37520,41.885412,-87.725404
41670,Conservatory,2001-07-01,357.9,217.5,162.5,9361,41.884904,-87.716523
41070,Kedzie-Lake,2001-07-01,1104.8,673.0,496.0,28868,41.884321,-87.706155
41360,California-Lake,2001-07-01,815.4,437.0,331.8,20862,41.88422,-87.696234
40170,Ashland-Lake,2001-07-01,1504.1,648.3,442.2,36832,41.885269,-87.666969
41160,Clinton-Lake,2001-07-01,1841.3,534.0,332.2,42796,41.885678,-87.641782
41120,35-Bronzeville-IIT,2001-07-01,1792.3,982.0,722.2,45899,41.831677,-87.625826
40300,Indiana,2001-07-01,645.3,347.8,252.2,16456,41.821732,-87.621371
41270,43rd,2001-07-01,837.0,483.5,319.8,21430,41.816462,-87.619021
41080,47th-South Elevated,2001-07-01,1227.6,900.0,500.2,32380,41.809209,-87.618826
40130,51st,2001-07-01,1195.5,724.8,497.0,30986,41.80209,-87.618487
40510,Garfield-South Elevated,2001-07-01,833.4,566.5,439.0,22402,41.795172,-87.618327
41140,King Drive,2001-07-01,707.4,421.5,307.3,18385,41.78013,-87.615546
40720,East 63rd-Cottage Grove,2001-07-01,1491.4,779.0,586.2,37953,41.780309,-87.605857
40940,Halsted/63rd,2001-07-01,726.9,476.0,315.5,19062,41.778943,-87.644244
40290,Ashland/63rd,2001-07-01,1768.9,970.3,769.2,45642,41.77886,-87.663766
41290,Kimball,2001-07-01,4058.4,2406.8,1643.2,104713,41.967901,-87.713065
41180,Kedzie-Brown,2001-07-01,1659.0,1128.5,806.0,44189,41.965996,-87.708821
40870,Francisco,2001-07-01,1188.8,580.5,380.3,29569,41.966046,-87.701644
41010,Rockwell,2001-07-01,1330.7,665.3,434.2,33210,41.966115,-87.6941
41480,Western-Brown,2001-07-01,3497.4,2115.3,1407.2,90349,41.966163,-87.688502
40090,Damen-Brown,2001-07-01,2118.7,1189.3,755.2,53781,41.966286,-87.678639
41500,Montrose-Brown,2001-07-01,2073.0,1193.5,753.2,52827,41.961756,-87.675047
41460,Irving Park-Brown,2001-07-01,2391.2,1237.5,766.3,59764,41.954521,-87.674868
41440,Addison-Brown,2001-07-01,1867.9,900.5,511.8,45899,41.947028,-87.674642
41310,Paulina,2001-07-01,2144.5,1292.3,821.3,55131,41.943623,-87.670907
40360,Southport,2001-07-01,2838.6,1478.8,887.3,70849,41.943744,-87.663619
41210,Wellington,2001-07-01,2592.5,1050.0,599.5,62240,41.936033,-87.653266
40530,Diversey,2001-07-01,4540.6,2284.8,1392.3,112846,41.932732,-87.653131
40660,Armitage,2001-07-01,3135.0,1629.5,799.0,77148,41.918217,-87.652644
40800,Sedgwick,2001-07-01,2459.2,1377.0,868.8,62364,41.910409,-87.639302
40710,Chicago/Franklin,2001-07-01,4089.4,1597.3,799.2,97062,41.89681,-87.635924
40460,Merchandise Mart,2001-07-01,6028.0,1116.3,434.7,133660,41.888969,-87.633924
40930,Midway Airport,2001-07-01,8718.1,3879.0,3325.8,218551,41.78661,-87.737875
40960,Pulaski-Orange,2001-07-01,5072.2,1706.8,1356.2,121481,41.799756,-87.724493
41150,Kedzie-Midway,2001-07-01,2989.2,1324.5,936.5,73690,41.804236,-87.704406
40310,Western-Orange,2001-07-01,3300.6,1174.8,841.5,79060,41.804546,-87.684019
40120,35th/Archer,2001-07-01,2278.1,888.5,636.3,55213,41.829353,-87.680622
41060,Ashland-Orange,2001-07-01,1334.7,645.3,456.5,33348,41.839234,-87.665317
41130,Halsted-Orange,2001-07-01,2369.9,886.0,662.5,57287,41.84678,-87.648088
40730,Washington/Wells,2001-07-01,7373.7,1047.5,455.5,161771,41.882695,-87.63378
40040,Quincy/Wells,2001-07-01,8047.8,1174.5,843.3,178762,41.878723,-87.63374
40160,LaSalle/Van Buren,2001-07-01,3519.2,339.0,196.5,76439,41.8768,-87.631739
40850,Library,2001-07-01,2654.2,1186.8,1028.7,66657,41.876862,-87.628196
40680,Adams/Wabash,2001-07-01,8242.8,4229.8,4978.5,219889,41.879507,-87.626037
40260,State/Lake,2001-07-01,8923.5,4674.0,3553.2,227409,41.88574,-87.627835
40380,Clark/Lake,2001-07-01,16558.1,3231.5,2517.5,375752,41.885737,-87.630886
40900,Howard,2001-08-01,6324.9,4231.0,3189.0,175153,42.019063,-87.672892
41190,Jarvis,2001-08-01,1406.9,1024.3,812.0,39704,42.015876,-87.669092
40100,Morse,2001-08-01,4186.9,3121.5,2433.0,118517,42.008362,-87.665909
41300,Loyola,2001-08-01,4812.3,3359.0,2668.3,134793,42.001073,-87.661061
40760,Granville,2001-08-01,3287.7,2254.5,1915.3,92297,41.993664,-87.659202
40880,Thorndale,2001-08-01,2632.2,1916.0,1470.0,74085,41.990259,-87.659076
41380,Bryn Mawr,2001-08-01,4296.5,2898.5,2334.3,119751,41.983504,-87.65884
40340,Berwyn,2001-08-01,3293.5,2312.0,1839.8,92358,41.977984,-87.658668
41200,Argyle,2001-08-01,2685.0,1930.5,1597.3,75867,41.973453,-87.65853
40770,Lawrence,2001-08-01,2618.7,1732.3,1517.0,73226,41.969139,-87.658493
40540,Wilson,2001-08-01,4618.7,3155.0,2340.3,128210,41.964273,-87.657588
40080,Sheridan,2001-08-01,4553.0,2947.5,2263.5,125564,41.953775,-87.654929
41420,Addison-North Main,2001-08-01,8791.4,7641.0,6463.0,258618,41.947428,-87.653626
41320,Belmont-North Main,2001-08-01,9967.5,8214.0,6729.0,289025,41.939751,-87.65338
41220,Fullerton,2001-08-01,9101.4,5367.3,4240.3,247762,41.925051,-87.652866
40650,North/Clybourn,2001-08-01,3566.4,2906.3,2550.5,103855,41.910655,-87.649177
40630,Clark/Division,2001-08-01,6816.8,5596.0,4875.8,198673,41.90392,-87.631412
41450,Chicago/State,2001-08-01,13739.1,10764.8,8375.3,392559,41.896671,-87.628176
40330,Grand/State,2001-08-01,9947.3,7575.0,6462.3,284938,41.891665,-87.628021
41660,Lake/State,2001-08-01,13945.2,6358.3,4897.0,365761,41.884809,-87.627813
41090,Monroe/State,2001-08-01,7612.7,2764.8,1905.0,193770,41.880745,-87.627696
40560,Jackson/State,2001-08-01,10849.2,3777.3,2664.0,275297,41.878153,-87.627596
41490,Harrison,2001-08-01,1826.0,1232.0,969.8,50804,41.874039,-87.627479
41400,Roosevelt,2001-08-01,6226.9,4728.3,3391.5,175698,41.867405,-87.62659
41400,Roosevelt,2001-08-01,6226.9,4728.3,3391.5,175698,41.867368,-87.627402
41000,Cermak-Chinatown,2001-08-01,2906.7,2841.5,2352.0,87628,41.853206,-87.630968
40190,Sox-35th-Dan Ryan,2001-08-01,3880.7,3058.5,2373.8,110986,41.831191,-87.630636
41230,47th-Dan Ryan,2001-08-01,2604.0,1992.5,1566.5,74127,41.810318,-87.63094
41170,Garfield-Dan Ryan,2001-08-01,4045.2,3247.5,2241.3,114994,41.79542,-87.631157
40910,63rd-Dan Ryan,2001-08-01,3425.6,2558.3,2062.3,97271,41.780536,-87.630952
40990,69th,2001-08-01,6436.2,4510.0,3420.5,179755,41.768367,-87.625724
40240,79th,2001-08-01,7156.2,4647.8,3661.0,197828,41.750419,-87.625112
41430,87th,2001-08-01,5119.6,3289.8,2501.3,140914,41.735372,-87.624717
40450,95th/Dan Ryan,2001-08-01,13412.2,7623.8,5611.8,361423,41.722377,-87.624342
41050,Linden,2001-08-01,1369.3,852.5,755.5,37926,42.073153,-87.69073
41250,Central-Evanston,2001-08-01,975.6,455.8,332.5,25592,42.063987,-87.685617
40400,Noyes,2001-08-01,575.7,373.3,222.0,15621,42.058282,-87.683337
40520,Foster,2001-08-01,654.6,347.8,263.0,17498,42.05416,-87.68356
40050,Davis,2001-08-01,3613.6,2383.5,1583.0,98978,42.04771,-87.683543
40690,Dempster,2001-08-01,698.4,487.5,396.3,19598,42.041655,-87.681602
40270,Main,2001-08-01,1197.7,712.5,484.8,32335,42.033456,-87.679538
40840,South Boulevard,2001-08-01,867.8,450.0,315.3,23020,42.027612,-87.678329
40140,Skokie,2001-08-01,2815.2,0.0,0.0,64750,42.038951,-87.751919
40890,O'Hare Airport,2001-08-01,9871.9,7702.3,8663.3,292515,41.97766526,-87.90422307
40820,Rosemont,2001-08-01,5685.7,2936.5,2138.0,151069,41.983507,-87.859388
40230,Cumberland,2001-08-01,5038.7,2610.5,1984.0,134268,41.984246,-87.838028
40750,Harlem-O'Hare,2001-08-01,2722.4,1165.3,827.0,70585,41.98227,-87.8089
41280,Jefferson Park,2001-08-01,6703.0,3093.0,2370.0,176022,41.970634,-87.760892
41330,Montrose-O'Hare,2001-08-01,1980.5,841.8,634.0,51454,41.961539,-87.743574
40550,Irving Park-O'Hare,2001-08-01,3849.8,1847.8,1424.3,101634,41.952925,-87.729229
41240,Addison-O'Hare,2001-08-01,2619.4,1083.5,930.3,68301,41.94738,-87.71906
40060,Belmont-O'Hare,2001-08-01,4640.8,2475.0,2015.0,124699,41.938132,-87.712359
41020,Logan Square,2001-08-01,4603.4,2372.8,1752.0,122377,41.929728,-87.708541
40570,California/Milwaukee,2001-08-01,2935.8,1476.3,1080.8,77751,41.921939,-87.69689
40670,Western/Milwaukee,2001-08-01,2891.6,1328.0,991.8,75786,41.916157,-87.687364
40590,Damen/Milwaukee,2001-08-01,4370.2,2218.3,1768.0,116459,41.909744,-87.677437
40320,Division/Milwaukee,2001-08-01,4131.6,2042.0,1517.3,109264,41.903355,-87.666496
41410,Chicago/Milwaukee,2001-08-01,2239.3,744.5,578.3,56795,41.896075,-87.655214
40490,Grand/Milwaukee,2001-08-01,1213.0,594.8,410.3,31919,41.891189,-87.647578
40370,Washington/Dearborn,2001-08-01,9387.7,2662.8,1915.0,234229,41.883164,-87.62944
40790,Monroe/Dearborn,2001-08-01,5667.3,1083.3,877.5,138190,41.880703,-87.629378
40070,Jackson/Dearborn,2001-08-01,7109.1,2137.5,1669.8,178738,41.878183,-87.629296
41340,LaSalle,2001-08-01,2077.7,370.8,300.3,50470,41.875568,-87.631722
40430,Clinton-Forest Park,2001-08-01,2401.3,935.3,879.0,62486,41.875539,-87.640984
40350,UIC-Halsted,2001-08-01,4160.0,1155.8,927.0,104011,41.875474,-87.649707
40470,Racine,2001-08-01,1712.4,807.0,562.0,44861,41.87592,-87.659458
40810,Medical Center,2001-08-01,1975.7,1033.8,784.5,52715,41.875706,-87.673932
40220,Western-Forest Park,2001-08-01,1029.3,844.0,628.8,29566,41.875478,-87.688436
40250,Kedzie-Homan-Forest Park,2001-08-01,1519.8,1011.5,788.5,42155,41.874341,-87.70604
40920,Pulaski-Forest Park,2001-08-01,1256.9,940.5,755.0,35690,41.873797,-87.725663
40970,Cicero-Forest Park,2001-08-01,1035.0,813.0,571.8,29343,41.871574,-87.745154
40010,Austin-Forest Park,2001-08-01,1571.4,692.8,535.3,41054,41.870851,-87.776812
40180,Oak Park-Forest Park,2001-08-01,1472.4,501.8,338.5,37226,41.872108,-87.791602
40980,Harlem-Forest Park,2001-08-01,861.7,459.8,375.8,23160,41.87349,-87.806961
40390,Forest Park,2001-08-01,3649.5,1416.3,1121.0,94088,41.874257,-87.817318
41030,Polk,2001-08-01,2462.1,6.8,0.0,56656,41.871551,-87.66953
40830,18th,2001-08-01,1001.3,2.0,0.0,23038,41.857908,-87.669147
40210,Damen-Cermak,2001-08-01,734.2,2.5,0.0,16897,41.854517,-87.675975
40740,Western-Cermak,2001-08-01,588.8,3.0,0.0,13554,41.854225,-87.685129
40440,California-Cermak,2001-08-01,804.0,1.8,0.0,18498,41.854109,-87.694774
41040,Kedzie-Cermak,2001-08-01,380.0,2.0,0.0,8749,41.853964,-87.705408
40780,Central Park,2001-08-01,416.5,0.8,0.0,9583,41.853839,-87.714842
40150,Pulaski-Cermak,2001-08-01,468.6,1.8,0.0,10785,41.853732,-87.724311
40600,Kostner,2001-08-01,290.9,2.3,0.0,6700,41.853751,-87.733258
40420,Cicero-Cermak,2001-08-01,961.7,6.0,0.0,22142,41.85182,-87.745336
40580,54th/Cermak,2001-08-01,1670.1,4.0,0.0,38428,41.85177331,-87.75669201
40020,Harlem-Lake,2001-08-01,3563.5,1886.0,1284.5,94642,41.886848,-87.803176
41350,Oak Park-Lake,2001-08-01,1435.5,637.3,526.8,37672,41.886988,-87.793783
40610,Ridgeland,2001-08-01,1377.5,478.5,335.8,34940,41.887159,-87.783661
41260,Austin-Lake,2001-08-01,1542.1,793.8,503.3,40656,41.887293,-87.774135
40280,Central-Lake,2001-08-01,2288.9,1394.3,1029.8,62340,41.887389,-87.76565
40700,Laramie,2001-08-01,1221.6,683.5,444.3,32607,41.887163,-87.754986
40480,Cicero-Lake,2001-08-01,1242.9,724.0,508.8,33518,41.886519,-87.744698
40030,Pulaski-Lake,2001-08-01,1351.1,888.0,617.5,37098,41.885412,-87.725404
41670,Conservatory,2001-08-01,370.4,219.0,169.0,10072,41.884904,-87.716523
41070,Kedzie-Lake,2001-08-01,1049.2,640.3,458.5,28526,41.884321,-87.706155
41360,California-Lake,2001-08-01,768.5,406.3,333.8,20635,41.88422,-87.696234
40170,Ashland-Lake,2001-08-01,1428.3,622.0,390.5,36902,41.885269,-87.666969
41160,Clinton-Lake,2001-08-01,1805.7,451.3,327.3,44646,41.885678,-87.641782
41120,35-Bronzeville-IIT,2001-08-01,1789.8,975.3,705.3,47888,41.831677,-87.625826
40300,Indiana,2001-08-01,626.3,366.5,253.8,16887,41.821732,-87.621371
41270,43rd,2001-08-01,774.7,621.5,330.5,21626,41.816462,-87.619021
41080,47th-South Elevated,2001-08-01,1179.2,1003.0,478.8,33049,41.809209,-87.618826
40130,51st,2001-08-01,1181.7,1098.5,483.5,33507,41.80209,-87.618487
40510,Garfield-South Elevated,2001-08-01,884.2,1455.8,420.8,27842,41.795172,-87.618327
41140,King Drive,2001-08-01,748.6,529.3,288.5,20488,41.78013,-87.615546
40720,East 63rd-Cottage Grove,2001-08-01,1469.0,894.5,576.3,39671,41.780309,-87.605857
40940,Halsted/63rd,2001-08-01,760.6,602.3,285.5,21045,41.778943,-87.644244
40290,Ashland/63rd,2001-08-01,1735.1,1198.3,666.8,47367,41.77886,-87.663766
41290,Kimball,2001-08-01,3884.0,2324.5,1552.0,104838,41.967901,-87.713065
41180,Kedzie-Brown,2001-08-01,1584.4,1077.3,786.0,43894,41.965996,-87.708821
40870,Francisco,2001-08-01,1129.9,539.8,364.8,29605,41.966046,-87.701644
41010,Rockwell,2001-08-01,1301.7,611.0,447.5,34174,41.966115,-87.6941
41480,Western-Brown,2001-08-01,3366.4,1838.5,1258.5,89815,41.966163,-87.688502
40090,Damen-Brown,2001-08-01,2006.7,1103.0,704.5,53384,41.966286,-87.678639
41500,Montrose-Brown,2001-08-01,1987.3,1076.8,704.0,52830,41.961756,-87.675047
41460,Irving Park-Brown,2001-08-01,2277.9,1077.3,669.5,59378,41.954521,-87.674868
41440,Addison-Brown,2001-08-01,1768.5,769.0,465.0,45612,41.947028,-87.674642
41310,Paulina,2001-08-01,2054.8,1005.0,709.0,54116,41.943623,-87.670907
40360,Southport,2001-08-01,2636.5,1101.8,777.3,68155,41.943744,-87.663619
41210,Wellington,2001-08-01,2486.7,845.5,520.3,62656,41.936033,-87.653266
40530,Diversey,2001-08-01,4367.7,1985.8,1235.3,113341,41.932732,-87.653131
40660,Armitage,2001-08-01,3006.5,1207.8,768.5,77055,41.918217,-87.652644
40800,Sedgwick,2001-08-01,2376.5,1279.5,1064.8,64036,41.910409,-87.639302
40710,Chicago/Franklin,2001-08-01,4023.6,1484.8,885.3,102023,41.89681,-87.635924
40460,Merchandise Mart,2001-08-01,5805.5,993.8,378.0,139013,41.888969,-87.633924
40930,Midway Airport,2001-08-01,8394.6,3340.0,3183.3,219168,41.78661,-87.737875
40960,Pulaski-Orange,2001-08-01,4599.7,1450.3,1052.5,115805,41.799756,-87.724493
41150,Kedzie-Midway,2001-08-01,2861.3,1266.5,860.0,74317,41.804236,-87.704406
40310,Western-Orange,2001-08-01,3200.8,1100.0,745.3,80999,41.804546,-87.684019
40120,35th/Archer,2001-08-01,2121.7,803.5,556.8,54240,41.829353,-87.680622
41060,Ashland-Orange,2001-08-01,1248.3,597.5,410.0,32741,41.839234,-87.665317
41130,Halsted-Orange,2001-08-01,2279.3,728.8,529.3,57456,41.84678,-87.648088
40730,Washington/Wells,2001-08-01,7053.8,742.8,470.5,167091,41.882695,-87.63378
40040,Quincy/Wells,2001-08-01,7902.5,1224.8,855.8,190079,41.878723,-87.63374
40160,LaSalle/Van Buren,2001-08-01,3424.1,323.5,186.8,80795,41.8768,-87.631739
40850,Library,2001-08-01,2251.7,707.0,492.3,56585,41.876862,-87.628196
40680,Adams/Wabash,2001-08-01,7021.0,2472.8,1805.8,178596,41.879507,-87.626037
40260,State/Lake,2001-08-01,8619.2,4291.0,3753.8,230420,41.88574,-87.627835
40380,Clark/Lake,2001-08-01,15972.9,2908.3,2511.3,389054,41.885737,-87.630886
40900,Howard,2001-09-01,6411.3,4250.8,2926.7,160629,42.019063,-87.672892
41190,Jarvis,2001-09-01,1519.8,1116.8,796.8,39241,42.015876,-87.669092
40100,Morse,2001-09-01,4529.9,3192.4,2265.8,115626,42.008362,-87.665909
41300,Loyola,2001-09-01,5669.5,4417.8,2834.5,146816,42.001073,-87.661061
40760,Granville,2001-09-01,3503.3,2525.4,1885.8,90504,41.993664,-87.659202
40880,Thorndale,2001-09-01,3172.2,2003.0,1443.7,78948,41.990259,-87.659076
41380,Bryn Mawr,2001-09-01,4671.5,3017.8,2281.8,117538,41.983504,-87.65884
40340,Berwyn,2001-09-01,3562.5,2399.6,1746.3,90164,41.977984,-87.658668
41200,Argyle,2001-09-01,2878.1,2049.8,1535.7,74147,41.973453,-87.65853
40770,Lawrence,2001-09-01,2769.2,2038.4,1466.8,71608,41.969139,-87.658493
40540,Wilson,2001-09-01,5800.6,3547.6,2313.2,141829,41.964273,-87.657588
40080,Sheridan,2001-09-01,4774.1,3083.2,2029.2,118299,41.953775,-87.654929
41420,Addison-North Main,2001-09-01,6676.6,6343.4,4549.7,185870,41.947428,-87.653626
41320,Belmont-North Main,2001-09-01,10186.8,8549.6,5911.2,271764,41.939751,-87.65338
41220,Fullerton,2001-09-01,11872.5,6774.2,4442.3,286103,41.925051,-87.652866
40650,North/Clybourn,2001-09-01,3926.6,3088.8,2154.2,102974,41.910655,-87.649177
40630,Clark/Division,2001-09-01,7206.7,5676.2,4184.7,190416,41.90392,-87.631412
41450,Chicago/State,2001-09-01,13344.8,10926.2,7476.7,353043,41.896671,-87.628176
40330,Grand/State,2001-09-01,7314.2,6089.6,4608.3,197067,41.891665,-87.628021
41660,Lake/State,2001-09-01,14063.2,6518.6,4356.7,325934,41.884809,-87.627813
41090,Monroe/State,2001-09-01,7582.1,3328.2,2062.7,173077,41.880745,-87.627696
40560,Jackson/State,2001-09-01,12173.7,4270.0,2493.5,267612,41.878153,-87.627596
41490,Harrison,2001-09-01,2180.7,1311.0,888.0,53316,41.874039,-87.627479
41400,Roosevelt,2001-09-01,6382.8,4420.6,3488.7,164309,41.867405,-87.62659
41400,Roosevelt,2001-09-01,6382.8,4420.6,3488.7,164309,41.867368,-87.627402
41000,Cermak-Chinatown,2001-09-01,2949.5,3057.8,2103.0,83948,41.853206,-87.630968
40190,Sox-35th-Dan Ryan,2001-09-01,4200.6,3061.2,2475.0,109967,41.831191,-87.630636
41230,47th-Dan Ryan,2001-09-01,3078.4,2091.8,1475.0,77799,41.810318,-87.63094
41170,Garfield-Dan Ryan,2001-09-01,4419.9,3080.6,2171.2,112409,41.79542,-87.631157
40910,63rd-Dan Ryan,2001-09-01,3807.5,2528.8,1960.0,96747,41.780536,-87.630952
40990,69th,2001-09-01,7376.6,4745.4,3285.3,183594,41.768367,-87.625724
40240,79th,2001-09-01,7685.3,4953.8,3489.5,191726,41.750419,-87.625112
41430,87th,2001-09-01,5738.6,3380.2,2253.7,139456,41.735372,-87.624717
40450,95th/Dan Ryan,2001-09-01,14921.1,7746.8,5372.8,354472,41.722377,-87.624342
41050,Linden,2001-09-01,1219.6,765.4,473.3,29840,42.073153,-87.69073
41250,Central-Evanston,2001-09-01,1000.8,862.8,283.5,25030,42.063987,-87.685617
40400,Noyes,2001-09-01,575.2,409.6,209.0,14231,42.058282,-87.683337
40520,Foster,2001-09-01,648.9,425.6,277.7,16124,42.05416,-87.68356
40050,Davis,2001-09-01,3639.4,2713.8,1590.3,92259,42.04771,-87.683543
40690,Dempster,2001-09-01,686.5,548.0,349.7,17881,42.041655,-87.681602
40270,Main,2001-09-01,1256.3,778.0,459.3,30516,42.033456,-87.679538
40840,South Boulevard,2001-09-01,879.9,472.6,272.8,20719,42.027612,-87.678329
40140,Skokie,2001-09-01,2824.8,0.0,0.0,53672,42.038951,-87.751919
40890,O'Hare Airport,2001-09-01,7221.0,6688.2,7344.7,214708,41.97766526,-87.90422307
40820,Rosemont,2001-09-01,5419.9,2347.6,1614.8,124406,41.983507,-87.859388
40230,Cumberland,2001-09-01,4893.1,2166.2,1512.7,112875,41.984246,-87.838028
40750,Harlem-O'Hare,2001-09-01,2827.7,1193.6,734.2,64099,41.98227,-87.8089
41280,Jefferson Park,2001-09-01,6694.6,2999.4,2121.3,154923,41.970634,-87.760892
41330,Montrose-O'Hare,2001-09-01,2016.8,846.8,591.8,46104,41.961539,-87.743574
40550,Irving Park-O'Hare,2001-09-01,3830.9,1837.4,1321.0,89901,41.952925,-87.729229
41240,Addison-O'Hare,2001-09-01,2691.6,1073.8,714.2,60795,41.94738,-87.71906
40060,Belmont-O'Hare,2001-09-01,4601.2,2428.6,1767.7,110171,41.938132,-87.712359
41020,Logan Square,2001-09-01,4718.5,2440.6,1669.7,111873,41.929728,-87.708541
40570,California/Milwaukee,2001-09-01,3074.4,1551.6,1017.8,72278,41.921939,-87.69689
40670,Western/Milwaukee,2001-09-01,3003.2,1448.8,968.2,70114,41.916157,-87.687364
40590,Damen/Milwaukee,2001-09-01,4394.9,2421.4,1653.2,105529,41.909744,-87.677437
40320,Division/Milwaukee,2001-09-01,4547.5,2161.2,1447.0,105890,41.903355,-87.666496
41410,Chicago/Milwaukee,2001-09-01,2367.6,842.2,535.0,52405,41.896075,-87.655214
40490,Grand/Milwaukee,2001-09-01,1192.9,546.2,346.3,27474,41.891189,-87.647578
40370,Washington/Dearborn,2001-09-01,9256.8,2778.0,1574.2,199215,41.883164,-87.62944
40790,Monroe/Dearborn,2001-09-01,5886.9,1338.8,873.2,123784,41.880703,-87.629378
40070,Jackson/Dearborn,2001-09-01,7454.4,2219.2,1395.5,161102,41.878183,-87.629296
41340,LaSalle,2001-09-01,2263.9,448.0,292.7,47011,41.875568,-87.631722
40430,Clinton-Forest Park,2001-09-01,2460.1,882.2,819.8,56071,41.875539,-87.640984
40350,UIC-Halsted,2001-09-01,6055.2,1559.6,935.8,128461,41.875474,-87.649707
40470,Racine,2001-09-01,2471.5,962.8,528.3,54943,41.87592,-87.659458
40810,Medical Center,2001-09-01,2305.9,1228.6,773.8,54598,41.875706,-87.673932
40220,Western-Forest Park,2001-09-01,1168.1,869.2,586.5,30059,41.875478,-87.688436
40250,Kedzie-Homan-Forest Park,2001-09-01,1697.4,1032.2,742.2,41864,41.874341,-87.70604
40920,Pulaski-Forest Park,2001-09-01,1382.7,989.6,696.5,35398,41.873797,-87.725663
40970,Cicero-Forest Park,2001-09-01,1130.8,814.0,557.5,28901,41.871574,-87.745154
40010,Austin-Forest Park,2001-09-01,1595.7,745.8,507.7,37093,41.870851,-87.776812
40180,Oak Park-Forest Park,2001-09-01,1535.9,489.2,283.7,33331,41.872108,-87.791602
40980,Harlem-Forest Park,2001-09-01,857.8,479.6,340.2,20737,41.87349,-87.806961
40390,Forest Park,2001-09-01,3798.7,1486.4,932.2,85201,41.874257,-87.817318
41030,Polk,2001-09-01,2586.0,8.2,0.0,49175,41.871551,-87.66953
40830,18th,2001-09-01,1016.3,2.6,0.0,19323,41.857908,-87.669147
40210,Damen-Cermak,2001-09-01,727.1,2.0,0.0,13825,41.854517,-87.675975
40740,Western-Cermak,2001-09-01,615.4,3.6,0.0,11711,41.854225,-87.685129
40440,California-Cermak,2001-09-01,840.3,1.8,0.0,15975,41.854109,-87.694774
41040,Kedzie-Cermak,2001-09-01,428.1,2.4,0.0,8145,41.853964,-87.705408
40780,Central Park,2001-09-01,486.5,2.6,0.0,9256,41.853839,-87.714842
40150,Pulaski-Cermak,2001-09-01,497.7,2.0,0.0,9466,41.853732,-87.724311
40600,Kostner,2001-09-01,331.1,0.0,0.0,6291,41.853751,-87.733258
40420,Cicero-Cermak,2001-09-01,923.2,3.6,0.0,17558,41.85182,-87.745336
40580,54th/Cermak,2001-09-01,1701.1,2.6,0.3,32335,41.85177331,-87.75669201
40020,Harlem-Lake,2001-09-01,3513.8,1979.2,1149.2,83553,41.886848,-87.803176
41350,Oak Park-Lake,2001-09-01,1431.9,630.2,431.2,32944,41.886988,-87.793783
40610,Ridgeland,2001-09-01,1438.3,467.6,274.2,31311,41.887159,-87.783661
41260,Austin-Lake,2001-09-01,1823.6,906.8,528.0,42351,41.887293,-87.774135
40280,Central-Lake,2001-09-01,2556.1,1457.6,969.0,61667,41.887389,-87.76565
40700,Laramie,2001-09-01,1424.9,745.2,433.5,33401,41.887163,-87.754986
40480,Cicero-Lake,2001-09-01,1456.2,768.6,514.2,34596,41.886519,-87.744698
40030,Pulaski-Lake,2001-09-01,1480.8,929.2,600.3,36384,41.885412,-87.725404
41670,Conservatory,2001-09-01,521.6,259.0,178.7,12278,41.884904,-87.716523
41070,Kedzie-Lake,2001-09-01,1332.2,668.0,432.2,31245,41.884321,-87.706155
41360,California-Lake,2001-09-01,830.2,434.2,325.3,19896,41.88422,-87.696234
40170,Ashland-Lake,2001-09-01,1592.5,660.8,394.5,35928,41.885269,-87.666969
41160,Clinton-Lake,2001-09-01,1900.6,492.4,305.2,40405,41.885678,-87.641782
41120,35-Bronzeville-IIT,2001-09-01,2056.5,1241.4,762.2,49854,41.831677,-87.625826
40300,Indiana,2001-09-01,687.3,358.2,236.5,16269,41.821732,-87.621371
41270,43rd,2001-09-01,806.8,473.8,295.7,19473,41.816462,-87.619021
41080,47th-South Elevated,2001-09-01,1210.4,798.8,483.5,29893,41.809209,-87.618826
40130,51st,2001-09-01,1253.9,739.0,474.2,30365,41.80209,-87.618487
40510,Garfield-South Elevated,2001-09-01,920.1,621.6,431.8,23180,41.795172,-87.618327
41140,King Drive,2001-09-01,754.7,454.2,289.5,18347,41.78013,-87.615546
40720,East 63rd-Cottage Grove,2001-09-01,1495.9,787.0,570.8,35783,41.780309,-87.605857
40940,Halsted/63rd,2001-09-01,784.5,501.2,290.8,19156,41.778943,-87.644244
40290,Ashland/63rd,2001-09-01,1799.9,948.0,676.3,42997,41.77886,-87.663766
41290,Kimball,2001-09-01,4362.4,2555.0,1454.3,104387,41.967901,-87.713065
41180,Kedzie-Brown,2001-09-01,1672.1,1096.2,734.7,41658,41.965996,-87.708821
40870,Francisco,2001-09-01,1189.2,592.4,333.7,27558,41.966046,-87.701644
41010,Rockwell,2001-09-01,1412.7,615.8,390.0,32260,41.966115,-87.6941
41480,Western-Brown,2001-09-01,3552.5,2191.4,1187.2,85577,41.966163,-87.688502
40090,Damen-Brown,2001-09-01,2122.8,1091.4,626.2,49547,41.966286,-87.678639
41500,Montrose-Brown,2001-09-01,2106.2,1078.8,594.3,48978,41.961756,-87.675047
41460,Irving Park-Brown,2001-09-01,2434.7,1096.0,581.5,55228,41.954521,-87.674868
41440,Addison-Brown,2001-09-01,1916.9,791.2,390.5,42721,41.947028,-87.674642
41310,Paulina,2001-09-01,2131.6,1036.8,633.5,49486,41.943623,-87.670907
40360,Southport,2001-09-01,2607.1,1117.2,680.0,59201,41.943744,-87.663619
41210,Wellington,2001-09-01,2575.4,921.0,473.5,56379,41.936033,-87.653266
40530,Diversey,2001-09-01,4518.4,2115.4,1211.3,103694,41.932732,-87.653131
40660,Armitage,2001-09-01,3614.5,1314.8,656.7,79190,41.918217,-87.652644
40800,Sedgwick,2001-09-01,2624.1,1476.8,724.2,61586,41.910409,-87.639302
40710,Chicago/Franklin,2001-09-01,4252.1,1655.6,805.0,93898,41.89681,-87.635924
40460,Merchandise Mart,2001-09-01,5572.4,1004.6,343.2,112957,41.888969,-87.633924
40930,Midway Airport,2001-09-01,7900.6,3121.8,2673.8,181763,41.78661,-87.737875
40960,Pulaski-Orange,2001-09-01,5713.2,1576.4,885.2,121743,41.799756,-87.724493
41150,Kedzie-Midway,2001-09-01,3175.1,1319.8,780.7,71609,41.804236,-87.704406
40310,Western-Orange,2001-09-01,3457.8,1155.0,655.7,75408,41.804546,-87.684019
40120,35th/Archer,2001-09-01,2323.8,876.8,492.0,51489,41.829353,-87.680622
41060,Ashland-Orange,2001-09-01,1413.9,663.4,359.3,32338,41.839234,-87.665317
41130,Halsted-Orange,2001-09-01,2659.5,788.2,457.0,57213,41.84678,-87.648088
40730,Washington/Wells,2001-09-01,7110.3,758.2,392.0,141238,41.882695,-87.63378
40040,Quincy/Wells,2001-09-01,7729.1,1076.6,748.2,156724,41.878723,-87.63374
40160,LaSalle/Van Buren,2001-09-01,3240.8,331.6,179.0,64308,41.8768,-87.631739
40850,Library,2001-09-01,2416.1,835.0,397.7,52466,41.876862,-87.628196
40680,Adams/Wabash,2001-09-01,7666.6,3136.8,1739.2,171785,41.879507,-87.626037
40260,State/Lake,2001-09-01,8981.4,4417.0,3113.2,211410,41.88574,-87.627835
40380,Clark/Lake,2001-09-01,15425.2,2827.8,1978.3,319088,41.885737,-87.630886
40900,Howard,2001-10-01,6295.5,4074.0,2972.8,172984,42.019063,-87.672892
41190,Jarvis,2001-10-01,1533.1,1100.5,828.0,42975,42.015876,-87.669092
40100,Morse,2001-10-01,4494.0,3082.8,2307.5,124924,42.008362,-87.665909
41300,Loyola,2001-10-01,5587.6,4148.3,2845.3,156488,42.001073,-87.661061
40760,Granville,2001-10-01,3626.7,2578.0,1993.3,101698,41.993664,-87.659202
40880,Thorndale,2001-10-01,3141.6,2007.0,1531.0,86408,41.990259,-87.659076
41380,Bryn Mawr,2001-10-01,4726.6,2993.8,2397.3,130276,41.983504,-87.65884
40340,Berwyn,2001-10-01,3626.0,2395.0,1911.3,100624,41.977984,-87.658668
41200,Argyle,2001-10-01,2905.8,2029.0,1575.0,81250,41.973453,-87.65853
40770,Lawrence,2001-10-01,2918.6,1852.5,1810.8,81781,41.969139,-87.658493
40540,Wilson,2001-10-01,5676.5,3452.8,2328.3,153683,41.964273,-87.657588
40080,Sheridan,2001-10-01,4653.6,2933.8,2288.0,127919,41.953775,-87.654929
41420,Addison-North Main,2001-10-01,5906.4,4690.8,4087.8,170962,41.947428,-87.653626
41320,Belmont-North Main,2001-10-01,10198.2,8436.0,6862.8,295754,41.939751,-87.65338
41220,Fullerton,2001-10-01,11888.5,6685.5,5360.3,321619,41.925051,-87.652866
40650,North/Clybourn,2001-10-01,3928.9,3001.8,2410.8,112015,41.910655,-87.649177
40630,Clark/Division,2001-10-01,7047.5,5362.5,4734.3,202479,41.90392,-87.631412
41450,Chicago/State,2001-10-01,13513.2,10357.3,7657.8,382864,41.896671,-87.628176
40330,Grand/State,2001-10-01,8637.0,6612.8,5191.8,245869,41.891665,-87.628021
41660,Lake/State,2001-10-01,13483.1,6119.5,4644.3,353166,41.884809,-87.627813
41090,Monroe/State,2001-10-01,7538.9,3218.8,2527.8,196381,41.880745,-87.627696
40560,Jackson/State,2001-10-01,12393.3,4556.8,4432.5,321002,41.878153,-87.627596
41490,Harrison,2001-10-01,3073.9,1777.0,1570.8,84091,41.874039,-87.627479
41400,Roosevelt,2001-10-01,6972.3,4296.3,4655.8,196172,41.867405,-87.62659
41400,Roosevelt,2001-10-01,6972.3,4296.3,4655.8,196172,41.867368,-87.627402
41000,Cermak-Chinatown,2001-10-01,2904.3,2844.5,2668.5,88850,41.853206,-87.630968
40190,Sox-35th-Dan Ryan,2001-10-01,3624.9,2222.5,2530.3,102384,41.831191,-87.630636
41230,47th-Dan Ryan,2001-10-01,3128.6,2043.0,1490.5,86092,41.810318,-87.63094
41170,Garfield-Dan Ryan,2001-10-01,4428.5,3117.5,2091.3,122690,41.79542,-87.631157
40910,63rd-Dan Ryan,2001-10-01,3792.1,2478.0,1949.5,104929,41.780536,-87.630952
40990,69th,2001-10-01,7322.3,4697.5,3317.5,200473,41.768367,-87.625724
40240,79th,2001-10-01,7725.8,4825.8,3475.3,210897,41.750419,-87.625112
41430,87th,2001-10-01,5713.7,3329.8,2191.5,153499,41.735372,-87.624717
40450,95th/Dan Ryan,2001-10-01,14860.2,7497.3,5349.5,393171,41.722377,-87.624342
41050,Linden,2001-10-01,1206.4,623.0,410.5,31881,42.073153,-87.69073
41250,Central-Evanston,2001-10-01,1024.3,1366.0,320.8,30306,42.063987,-87.685617
40400,Noyes,2001-10-01,660.6,510.0,244.5,18211,42.058282,-87.683337
40520,Foster,2001-10-01,697.6,506.8,319.3,19348,42.05416,-87.68356
40050,Davis,2001-10-01,3738.7,2967.5,1805.8,105083,42.04771,-87.683543
40690,Dempster,2001-10-01,695.8,527.5,372.5,19603,42.041655,-87.681602
40270,Main,2001-10-01,1291.9,819.0,489.0,34945,42.033456,-87.679538
40840,South Boulevard,2001-10-01,900.2,470.8,270.3,23669,42.027612,-87.678329
40140,Skokie,2001-10-01,2853.9,0.0,0.0,65639,42.038951,-87.751919
40890,O'Hare Airport,2001-10-01,7574.0,5862.5,6951.3,225457,41.97766526,-87.90422307
40820,Rosemont,2001-10-01,5234.0,2226.0,1548.5,135479,41.983507,-87.859388
40230,Cumberland,2001-10-01,4958.5,1922.8,1574.3,128033,41.984246,-87.838028
40750,Harlem-O'Hare,2001-10-01,2816.7,1139.5,767.0,72409,41.98227,-87.8089
41280,Jefferson Park,2001-10-01,6593.6,2774.8,2039.3,170908,41.970634,-87.760892
41330,Montrose-O'Hare,2001-10-01,2016.9,778.0,573.3,51794,41.961539,-87.743574
